
$GPRMC,160319.819,V,,,,,0.03,338.56,140318,,,N*46

$GPRMC,160326.819,V,,,,,0.14,113.07,140318,,,N*43

$GPRMC,160334.000,A,3732.7411,N,12216.5187,W,0.52,235.11,140318,,,A*78

$GPRMC,160341.000,A,3732.7395,N,12216.5233,W,0.11,107.19,140318,,,A*70

$GPRMC,160348.000,A,3732.7390,N,12216.5201,W,0.48,29.22,140318,,,A*44

$GPRMC,160355.000,A,3732.7389,N,12216.5184,W,0.57,53.27,140318,,,A*48

$GPRMC,160402.000,A,3732.7397,N,12216.5164,W,0.47,12.06,140318,,,A*4B

$GPRMC,160409.000,A,3732.7401,N,12216.5167,W,0.30,343.28,140318,,,A*70

$GPRMC,160416.000,A,3732.7399,N,12216.5167,W,0.26,160.50,140318,,,A*73

$GPRMC,160423.000,A,3732.7394,N,12216.5166,W,0.44,186.91,140318,,,A*78

$GPRMC,160430.000,A,3732.7351,N,12216.5170,W,0.78,344.39,140318,,,A*75

$GPRMC,160437.000,A,3732.7344,N,12216.5166,W,0.69,299.09,140318,,,A*73

$GPRMC,160444.000,A,3732.7341,N,12216.5168,W,0.51,346.35,140318,,,A*7B

$GPRMC,160451.000,A,3732.7362,N,12216.5180,W,0.44,339.13,140318,,,A*70

$GPRMC,160458.000,A,3732.7380,N,12216.5190,W,0.39,295.46,140318,,,A*79

$GPRMC,160505.000,A,3732.7418,N,12216.5215,W,0.30,339.18,140318,,,A*7D

$GPRMC,160512.000,A,3732.7415,N,12216.5203,W,0.56,163.57,140318,,,A*77

$GPRMC,160519.000,A,3732.7438,N,12216.5207,W,0.15,309.50,140318,,,A*79

$GPRMC,160526.000,A,3732.7439,N,12216.5211,W,0.19,220.38,140318,,,A*7B

$GPRMC,160533.000,A,3732.7435,N,12216.5213,W,0.21,192.82,140318,,,A*71

$GPRMC,160540.000,A,3732.7427,N,12216.5212,W,0.30,51.50,140318,,,A*46

$GPRMC,160547.000,A,3732.7429,N,12216.5215,W,0.26,303.32,140318,,,A*7F

$GPRMC,160554.000,A,3732.7428,N,12216.5216,W,0.63,19.59,140318,,,A*4B

$GPRMC,160601.000,A,3732.7419,N,12216.5219,W,0.63,175.30,140318,,,A*71

$GPRMC,160608.000,A,3732.7418,N,12216.5219,W,0.24,328.83,140318,,,A*78

$GPRMC,160615.000,A,3732.7417,N,12216.5223,W,0.32,283.30,140318,,,A*7D

$GPRMC,160623.000,A,3732.7428,N,12216.5211,W,0.50,120.41,140318,,,A*7D

$GPRMC,160630.000,A,3732.7427,N,12216.5210,W,0.14,289.41,140318,,,A*71

$GPRMC,160637.000,A,3732.7428,N,12216.5210,W,0.58,115.18,140318,,,A*7B

$GPRMC,160644.000,A,3732.7431,N,12216.5204,W,0.22,280.57,140318,,,A*7B

$GPRMC,160651.000,A,3732.7432,N,12216.5205,W,0.47,236.46,140318,,,A*73

$GPRMC,160658.000,A,3732.7430,N,12216.5209,W,0.22,292.83,140318,,,A*70

$GPRMC,160705.000,A,3732.7430,N,12216.5212,W,0.13,196.08,140318,,,A*75

$GPRMC,160712.000,A,3732.7428,N,12216.5212,W,0.12,133.97,140318,,,A*72

$GPRMC,160719.000,A,3732.7428,N,12216.5207,W,0.22,61.47,140318,,,A*45

$GPRMC,160726.000,A,3732.7429,N,12216.5205,W,0.20,82.05,140318,,,A*43

$GPRMC,160733.000,A,3732.7430,N,12216.5199,W,0.15,96.24,140318,,,A*49

$GPRMC,160740.000,A,3732.7429,N,12216.5202,W,0.71,187.25,140318,,,A*76

$GPRMC,160747.000,A,3732.7430,N,12216.5205,W,0.47,280.56,140318,,,A*7B

$GPRMC,160754.000,A,3732.7435,N,12216.5213,W,0.15,352.45,140318,,,A*70

$GPRMC,160801.000,A,3732.7437,N,12216.5216,W,0.13,251.22,140318,,,A*7D

$GPRMC,160808.000,A,3732.7438,N,12216.5215,W,0.09,151.52,140318,,,A*77

$GPRMC,160815.000,A,3732.7439,N,12216.5213,W,0.22,49.24,140318,,,A*4C

$GPRMC,160823.000,A,3732.7439,N,12216.5209,W,0.06,102.10,140318,,,A*7D

$GPRMC,160830.000,A,3732.7441,N,12216.5212,W,0.08,243.64,140318,,,A*71

$GPRMC,160837.000,A,3732.7441,N,12216.5215,W,0.12,324.49,140318,,,A*75

$GPRMC,160844.000,A,3732.7443,N,12216.5214,W,0.13,44.05,140318,,,A*4E

$GPRMC,160851.000,A,3732.7445,N,12216.5215,W,0.10,333.87,140318,,,A*77

$GPRMC,160858.000,A,3732.7447,N,12216.5216,W,0.08,109.03,140318,,,A*71

$GPRMC,160905.000,A,3732.7448,N,12216.5218,W,0.15,22.16,140318,,,A*49

$GPRMC,160912.000,A,3732.7450,N,12216.5216,W,0.10,94.00,140318,,,A*47

$GPRMC,160919.000,A,3732.7454,N,12216.5219,W,0.33,318.14,140318,,,A*74

$GPRMC,160926.000,A,3732.7457,N,12216.5223,W,0.12,78.77,140318,,,A*41

$GPRMC,160933.000,A,3732.7458,N,12216.5222,W,0.21,320.55,140318,,,A*75

$GPRMC,160940.000,A,3732.7460,N,12216.5223,W,0.13,62.33,140318,,,A*4F

$GPRMC,160947.000,A,3732.7465,N,12216.5222,W,0.49,20.73,140318,,,A*41

$GPRMC,160959.000,A,3732.7438,N,12216.5284,W,1.26,257.74,140318,,,A*77

$GPRMC,161006.000,A,3732.7390,N,12216.5309,W,1.60,229.95,140318,,,A*70

$GPRMC,161013.000,A,3732.7385,N,12216.5307,W,0.18,94.63,140318,,,A*4D

$GPRMC,161020.000,A,3732.7380,N,12216.5304,W,0.07,104.32,140318,,,A*79

$GPRMC,161027.000,A,3732.7377,N,12216.5319,W,1.42,281.34,140318,,,A*72

$GPRMC,161034.000,A,3732.7391,N,12216.5347,W,0.88,341.86,140318,,,A*70

$GPRMC,161041.000,A,3732.7391,N,12216.5345,W,0.03,217.66,140318,,,A*7F

$GPRMC,161048.000,A,3732.7391,N,12216.5354,W,0.09,269.90,140318,,,A*7C

$GPRMC,161055.000,A,3732.7390,N,12216.5358,W,0.35,281.94,140318,,,A*70

$GPRMC,161102.000,A,3732.7388,N,12216.5363,W,0.40,182.99,140318,,,A*7D

$GPRMC,161109.000,A,3732.7382,N,12216.5360,W,0.37,146.36,140318,,,A*72

$GPRMC,161116.000,A,3732.7384,N,12216.5381,W,5.37,283.77,140318,,,A*7F

$GPRMC,161123.000,A,3732.7475,N,12216.5598,W,7.05,307.78,140318,,,A*7F

$GPRMC,161130.000,A,3732.7637,N,12216.5605,W,13.22,24.53,140318,,,A*75

$GPRMC,161137.000,A,3732.7991,N,12216.5364,W,22.37,30.74,140318,,,A*75

$GPRMC,161144.000,A,3732.8489,N,12216.5147,W,25.84,10.46,140318,,,A*75

$GPRMC,161151.000,A,3732.9004,N,12216.5230,W,27.31,338.53,140318,,,A*43

$GPRMC,161158.000,A,3732.9449,N,12216.5703,W,30.27,311.30,140318,,,A*4D

$GPRMC,161205.000,A,3732.9789,N,12216.6283,W,29.19,308.60,140318,,,A*4F

$GPRMC,161212.000,A,3733.0104,N,12216.6827,W,26.55,306.45,140318,,,A*48

$GPRMC,161219.000,A,3733.0439,N,12216.7289,W,24.81,322.68,140318,,,A*45

$GPRMC,161226.000,A,3733.0822,N,12216.7419,W,17.85,354.40,140318,,,A*4F

$GPRMC,161233.000,A,3733.0962,N,12216.7420,W,7.19,319.39,140318,,,A*77

$GPRMC,161240.000,A,3733.1075,N,12216.7830,W,22.39,297.06,140318,,,A*4E

$GPRMC,161247.000,A,3733.1252,N,12216.8154,W,10.84,311.75,140318,,,A*46

$GPRMC,161254.000,A,3733.1243,N,12216.8121,W,0.04,316.92,140318,,,A*71

$GPRMC,161301.000,A,3733.1246,N,12216.8113,W,0.06,316.92,140318,,,A*76

$GPRMC,161308.000,A,3733.1241,N,12216.8107,W,0.00,316.92,140318,,,A*7B

$GPRMC,161315.000,A,3733.1240,N,12216.8104,W,0.00,316.92,140318,,,A*75

$GPRMC,161322.000,A,3733.1240,N,12216.8104,W,0.00,316.92,140318,,,A*71

$GPRMC,161329.000,A,3733.1240,N,12216.8104,W,0.00,316.92,140318,,,A*7A

$GPRMC,161336.000,A,3733.1240,N,12216.8104,W,0.00,316.92,140318,,,A*74

$GPRMC,161343.000,A,3733.1253,N,12216.8123,W,5.85,301.60,140318,,,A*72

$GPRMC,161350.000,A,3733.1201,N,12216.8434,W,18.70,221.90,140318,,,A*4E

$GPRMC,161357.000,A,3733.0756,N,12216.8875,W,29.90,218.93,140318,,,A*43

$GPRMC,161404.000,A,3733.0220,N,12216.9372,W,33.14,218.52,140318,,,A*41

$GPRMC,161411.000,A,3732.9687,N,12216.9875,W,33.92,214.00,140318,,,A*4D

$GPRMC,161418.000,A,3732.9075,N,12217.0194,W,33.54,197.56,140318,,,A*40

$GPRMC,161425.000,A,3732.8584,N,12217.0382,W,17.19,194.92,140318,,,A*45

$GPRMC,161432.000,A,3732.8535,N,12217.0383,W,0.04,182.10,140318,,,A*7F

$GPRMC,161439.000,A,3732.8534,N,12217.0381,W,0.02,182.10,140318,,,A*71

$GPRMC,161446.000,A,3732.8530,N,12217.0381,W,0.04,182.10,140318,,,A*7B

$GPRMC,161453.000,A,3732.8526,N,12217.0378,W,0.00,182.10,140318,,,A*7A

$GPRMC,161500.000,A,3732.8525,N,12217.0380,W,0.00,182.10,140318,,,A*79

$GPRMC,161507.000,A,3732.8526,N,12217.0381,W,0.19,182.10,140318,,,A*74

$GPRMC,161514.000,A,3732.8528,N,12217.0382,W,0.00,182.10,140318,,,A*73

$GPRMC,161521.000,A,3732.8528,N,12217.0382,W,0.17,182.10,140318,,,A*73

$GPRMC,161528.000,A,3732.8534,N,12217.0384,W,0.00,182.10,140318,,,A*77

$GPRMC,161535.000,A,3732.8534,N,12217.0383,W,0.00,182.10,140318,,,A*7C

$GPRMC,161542.000,A,3732.8535,N,12217.0384,W,0.19,182.10,140318,,,A*72

$GPRMC,161549.000,A,3732.8509,N,12217.0402,W,8.34,206.96,140318,,,A*79

$GPRMC,161556.000,A,3732.8225,N,12217.0556,W,14.66,202.79,140318,,,A*41

$GPRMC,161603.000,A,3732.7948,N,12217.0876,W,22.29,232.99,140318,,,A*41

$GPRMC,161610.000,A,3732.7681,N,12217.1339,W,21.84,234.64,140318,,,A*48

$GPRMC,161617.000,A,3732.7419,N,12217.1762,W,20.21,232.26,140318,,,A*48

$GPRMC,161624.000,A,3732.7142,N,12217.2217,W,24.82,234.39,140318,,,A*42

$GPRMC,161631.000,A,3732.6914,N,12217.2595,W,14.88,233.45,140318,,,A*44

$GPRMC,161638.000,A,3732.6828,N,12217.2724,W,2.67,224.75,140318,,,A*78

$GPRMC,161645.000,A,3732.6730,N,12217.2883,W,16.84,237.39,140318,,,A*44

$GPRMC,161652.000,A,3732.6437,N,12217.3394,W,29.40,235.17,140318,,,A*40

$GPRMC,161659.000,A,3732.6005,N,12217.3995,W,32.84,223.70,140318,,,A*41

$GPRMC,161706.000,A,3732.5520,N,12217.4412,W,23.36,207.24,140318,,,A*40

$GPRMC,161713.000,A,3732.5240,N,12217.4567,W,7.47,205.93,140318,,,A*78

$GPRMC,161720.000,A,3732.5229,N,12217.4576,W,0.03,203.11,140318,,,A*7C

$GPRMC,161727.000,A,3732.5232,N,12217.4580,W,0.01,203.11,140318,,,A*7A

$GPRMC,161734.000,A,3732.5234,N,12217.4585,W,0.02,203.11,140318,,,A*78

$GPRMC,161741.000,A,3732.5235,N,12217.4585,W,0.15,203.11,140318,,,A*7D

$GPRMC,161748.000,A,3732.5237,N,12217.4586,W,0.02,203.11,140318,,,A*73

$GPRMC,161755.000,A,3732.5237,N,12217.4585,W,0.00,203.11,140318,,,A*7E

$GPRMC,161802.000,A,3732.5235,N,12217.4585,W,0.00,203.11,140318,,,A*71

$GPRMC,161809.000,A,3732.5236,N,12217.4585,W,0.00,203.11,140318,,,A*79

$GPRMC,161816.000,A,3732.5082,N,12217.4679,W,16.09,206.21,140318,,,A*42

$GPRMC,161823.000,A,3732.4641,N,12217.4970,W,27.89,215.47,140318,,,A*42

$GPRMC,161830.000,A,3732.4252,N,12217.5504,W,30.66,230.81,140318,,,A*42

$GPRMC,161837.000,A,3732.3877,N,12217.6121,W,31.65,232.49,140318,,,A*4B

$GPRMC,161844.000,A,3732.3491,N,12217.6739,W,30.25,232.03,140318,,,A*4F

$GPRMC,161851.000,A,3732.3125,N,12217.7324,W,29.61,231.43,140318,,,A*47

$GPRMC,161858.000,A,3732.2839,N,12217.7795,W,16.79,238.82,140318,,,A*44

$GPRMC,161905.000,A,3732.2937,N,12217.8068,W,15.25,293.36,140318,,,A*4C

$GPRMC,161912.000,A,3732.2920,N,12217.8324,W,7.84,244.43,140318,,,A*77

$GPRMC,161919.000,A,3732.2986,N,12217.8489,W,11.43,313.94,140318,,,A*45

$GPRMC,161926.000,A,3732.3206,N,12217.8632,W,10.04,353.38,140318,,,A*49

$GPRMC,161933.000,A,3732.3353,N,12217.8591,W,0.13,24.95,140318,,,A*45

$GPRMC,161940.000,A,3732.3346,N,12217.8595,W,0.05,24.95,140318,,,A*46

$GPRMC,161947.000,A,3732.3334,N,12217.8603,W,1.95,24.95,140318,,,A*40

$GPRMC,161954.000,A,3732.3329,N,12217.8581,W,0.32,51.15,140318,,,A*41

$GPRMC,162001.000,A,3732.3336,N,12217.8576,W,0.23,324.37,140318,,,A*7C

$GPRMC,162008.000,A,3732.3322,N,12217.8567,W,1.08,159.92,140318,,,A*7F

$GPRMC,162015.000,A,3732.3322,N,12217.8566,W,0.03,95.43,140318,,,A*45

$GPRMC,162022.000,A,3732.3313,N,12217.8575,W,2.58,231.93,140318,,,A*7C

$GPRMC,162029.000,A,3732.3292,N,12217.8607,W,1.78,192.59,140318,,,A*74

$GPRMC,162036.000,A,3732.3277,N,12217.8677,W,2.90,256.65,140318,,,A*77

$GPRMC,162043.000,A,3732.3268,N,12217.8745,W,2.91,254.09,140318,,,A*72

$GPRMC,162050.000,A,3732.3276,N,12217.8810,W,2.66,298.83,140318,,,A*7A

$GPRMC,162057.000,A,3732.3256,N,12217.8817,W,2.70,145.22,140318,,,A*77

$GPRMC,162104.000,A,3732.3209,N,12217.8772,W,2.85,136.68,140318,,,A*76

$GPRMC,162111.000,A,3732.3165,N,12217.8732,W,2.76,149.15,140318,,,A*71

$GPRMC,162118.000,A,3732.3128,N,12217.8706,W,1.47,238.14,140318,,,A*73

$GPRMC,162125.000,A,3732.3144,N,12217.8744,W,2.27,320.32,140318,,,A*78

$GPRMC,162132.000,A,3732.3173,N,12217.8781,W,1.78,315.30,140318,,,A*7E

$GPRMC,162139.000,A,3732.3182,N,12217.8788,W,0.37,269.36,140318,,,A*74

$GPRMC,162146.000,A,3732.3192,N,12217.8788,W,0.05,319.46,140318,,,A*7D

$GPRMC,162153.000,A,3732.3193,N,12217.8787,W,0.04,321.47,140318,,,A*7C

$GPRMC,162200.000,A,3732.3192,N,12217.8785,W,0.41,282.60,140318,,,A*76

$GPRMC,162207.000,A,3732.3193,N,12217.8784,W,0.05,282.60,140318,,,A*71

$GPRMC,162214.000,A,3732.3193,N,12217.8784,W,0.04,282.60,140318,,,A*72

$GPRMC,162221.000,A,3732.3193,N,12217.8784,W,0.01,282.60,140318,,,A*71

$GPRMC,162228.000,A,3732.3193,N,12217.8784,W,0.46,282.60,140318,,,A*7B

$GPRMC,162235.000,A,3732.3191,N,12217.8786,W,0.57,233.36,140318,,,A*7E

$GPRMC,162242.000,A,3732.3192,N,12217.8787,W,0.16,233.36,140318,,,A*79

$GPRMC,162249.000,A,3732.3191,N,12217.8786,W,0.02,233.36,140318,,,A*75

$GPRMC,162256.000,A,3732.3191,N,12217.8786,W,0.03,233.36,140318,,,A*7A

$GPRMC,162303.000,A,3732.3191,N,12217.8783,W,0.25,233.36,140318,,,A*7A

$GPRMC,162310.000,A,3732.3191,N,12217.8782,W,0.02,233.36,140318,,,A*7C

$GPRMC,162317.000,A,3732.3192,N,12217.8784,W,0.26,233.36,140318,,,A*78

$GPRMC,162324.000,A,3732.3190,N,12217.8784,W,0.19,233.36,140318,,,A*76

$GPRMC,162331.000,A,3732.3191,N,12217.8783,W,0.08,233.36,140318,,,A*74

$GPRMC,162338.000,A,3732.3191,N,12217.8783,W,0.02,233.36,140318,,,A*77

$GPRMC,162345.000,A,3732.3191,N,12217.8783,W,0.11,233.36,140318,,,A*7F

$GPRMC,162352.000,A,3732.3188,N,12217.8784,W,0.05,197.29,140318,,,A*70

$GPRMC,162359.000,A,3732.3188,N,12217.8782,W,0.03,197.29,140318,,,A*7B

$GPRMC,162406.000,A,3732.3188,N,12217.8783,W,0.03,197.29,140318,,,A*77

$GPRMC,162413.000,A,3732.3190,N,12217.8782,W,0.55,354.86,140318,,,A*70

$GPRMC,162420.000,A,3732.3191,N,12217.8781,W,0.01,31.07,140318,,,A*4A

$GPRMC,162427.000,A,3732.3191,N,12217.8781,W,0.00,31.07,140318,,,A*4C

$GPRMC,162434.000,A,3732.3190,N,12217.8781,W,0.02,31.07,140318,,,A*4D

$GPRMC,162441.000,A,3732.3190,N,12217.8781,W,0.16,31.07,140318,,,A*4A

$GPRMC,162448.000,A,3732.3190,N,12217.8780,W,0.03,31.07,140318,,,D*43

$GPRMC,162455.000,A,3732.3188,N,12217.8779,W,0.05,31.07,140318,,,D*46

$GPRMC,162502.000,A,3732.3187,N,12217.8779,W,0.03,31.07,140318,,,D*4C

$GPRMC,162509.000,A,3732.3181,N,12217.8781,W,0.03,31.07,140318,,,D*46

$GPRMC,162516.000,A,3732.3178,N,12217.8782,W,0.02,31.07,140318,,,D*4C

$GPRMC,162523.000,A,3732.3179,N,12217.8782,W,0.02,31.07,140318,,,D*4B

$GPRMC,162530.000,A,3732.3179,N,12217.8783,W,0.02,31.07,140318,,,D*48

$GPRMC,162537.000,A,3732.3179,N,12217.8783,W,0.03,31.07,140318,,,D*4E

$GPRMC,162544.000,A,3732.3179,N,12217.8783,W,0.03,31.07,140318,,,D*4A

$GPRMC,162551.000,A,3732.3179,N,12217.8783,W,0.53,115.82,140318,,,D*71

$GPRMC,162558.000,A,3732.3178,N,12217.8779,W,0.64,218.94,140318,,,D*71

$GPRMC,162605.000,A,3732.3178,N,12217.8780,W,0.09,218.94,140318,,,D*77

$GPRMC,162612.000,A,3732.3178,N,12217.8780,W,0.01,218.94,140318,,,D*79

$GPRMC,162619.000,A,3732.3178,N,12217.8780,W,0.11,218.94,140318,,,D*73

$GPRMC,162626.000,A,3732.3178,N,12217.8780,W,0.06,218.94,140318,,,D*79

$GPRMC,162634.000,A,3732.3178,N,12217.8780,W,0.03,218.94,140318,,,D*7F

$GPRMC,162641.000,A,3732.3178,N,12217.8780,W,0.09,218.94,140318,,,D*77

$GPRMC,162648.000,A,3732.3183,N,12217.8775,W,0.69,46.51,140318,,,D*46

$GPRMC,162655.000,A,3732.3184,N,12217.8779,W,0.25,279.55,140318,,,D*73

$GPRMC,162702.000,A,3732.3185,N,12217.8778,W,0.01,279.55,140318,,,D*76

$GPRMC,162709.000,A,3732.3185,N,12217.8778,W,0.04,279.55,140318,,,D*78

$GPRMC,162716.000,A,3732.3185,N,12217.8778,W,0.02,279.55,140318,,,D*70

$GPRMC,162723.000,A,3732.3185,N,12217.8778,W,0.01,279.55,140318,,,D*75

$GPRMC,162730.000,A,3732.3185,N,12217.8778,W,0.02,279.55,140318,,,D*74

$GPRMC,162737.000,A,3732.3185,N,12217.8778,W,0.01,279.55,140318,,,D*70

$GPRMC,162744.000,A,3732.3185,N,12217.8778,W,0.01,279.55,140318,,,D*74

$GPRMC,162751.000,A,3732.3185,N,12217.8778,W,0.03,279.55,140318,,,D*72

$GPRMC,162758.000,A,3732.3185,N,12217.8778,W,0.01,279.55,140318,,,D*79

$GPRMC,162805.000,A,3732.3185,N,12217.8778,W,0.02,279.55,140318,,,D*7D

$GPRMC,162812.000,A,3732.3185,N,12217.8778,W,0.01,279.55,140318,,,D*78

$GPRMC,162819.000,A,3732.3185,N,12217.8778,W,0.01,279.55,140318,,,D*73

$GPRMC,162826.000,A,3732.3185,N,12217.8778,W,0.01,279.55,140318,,,D*7F

$GPRMC,162833.000,A,3732.3185,N,12217.8778,W,0.01,279.55,140318,,,D*7B

$GPRMC,162840.000,A,3732.3185,N,12217.8778,W,0.06,279.55,140318,,,D*78

$GPRMC,162847.000,A,3732.3185,N,12217.8778,W,0.01,279.55,140318,,,D*78

$GPRMC,162854.000,A,3732.3185,N,12217.8778,W,0.16,279.55,140318,,,D*7C

$GPRMC,162902.000,A,3732.3185,N,12217.8778,W,0.02,279.55,140318,,,D*7B

$GPRMC,162909.000,A,3732.3185,N,12217.8778,W,0.02,279.55,140318,,,D*70

$GPRMC,162916.000,A,3732.3185,N,12217.8778,W,0.01,279.55,140318,,,D*7D

$GPRMC,162923.000,A,3732.3185,N,12217.8778,W,0.01,279.55,140318,,,D*7B

$GPRMC,162930.000,A,3732.3185,N,12217.8778,W,0.22,279.55,140318,,,D*78

$GPRMC,162937.000,A,3732.3186,N,12217.8779,W,0.22,279.55,140318,,,D*7D

$GPRMC,162944.000,A,3732.3186,N,12217.8779,W,0.03,279.55,140318,,,D*7A

$GPRMC,162951.000,A,3732.3186,N,12217.8779,W,0.02,279.55,140318,,,D*7F

$GPRMC,162958.000,A,3732.3186,N,12217.8779,W,0.03,279.55,140318,,,D*77

$GPRMC,163005.000,A,3732.3186,N,12217.8779,W,0.06,279.55,140318,,,D*72

$GPRMC,163012.000,A,3732.3186,N,12217.8779,W,0.00,279.55,140318,,,D*72

$GPRMC,163019.000,A,3732.3186,N,12217.8779,W,0.02,279.55,140318,,,D*7B

$GPRMC,163026.000,A,3732.3186,N,12217.8779,W,0.02,279.55,140318,,,D*77

$GPRMC,163033.000,A,3732.3186,N,12217.8779,W,0.12,279.55,140318,,,D*72

$GPRMC,163040.000,A,3732.3186,N,12217.8779,W,0.23,279.55,140318,,,D*74

$GPRMC,163047.000,A,3732.3186,N,12217.8779,W,0.19,279.55,140318,,,D*7A

$GPRMC,163054.000,A,3732.3186,N,12217.8779,W,0.03,279.55,140318,,,D*73

$GPRMC,163101.000,A,3732.3186,N,12217.8779,W,0.06,279.55,140318,,,D*77

$GPRMC,163108.000,A,3732.3186,N,12217.8779,W,0.02,279.55,140318,,,D*7A

$GPRMC,163115.000,A,3732.3186,N,12217.8779,W,0.08,279.55,140318,,,D*7C

$GPRMC,163122.000,A,3732.3186,N,12217.8779,W,0.08,279.55,140318,,,D*78

$GPRMC,163129.000,A,3732.3186,N,12217.8779,W,0.02,279.55,140318,,,D*79

$GPRMC,163136.000,A,3732.3186,N,12217.8779,W,0.02,279.55,140318,,,D*77

$GPRMC,163143.000,A,3732.3186,N,12217.8779,W,0.01,279.55,140318,,,D*76

$GPRMC,163150.000,A,3732.3186,N,12217.8779,W,0.09,279.55,140318,,,D*7C

$GPRMC,163157.000,A,3732.3186,N,12217.8779,W,0.05,279.55,140318,,,D*77

$GPRMC,163204.000,A,3732.3186,N,12217.8779,W,0.03,279.55,140318,,,D*74

$GPRMC,163211.000,A,3732.3186,N,12217.8779,W,0.08,279.55,140318,,,D*7B

$GPRMC,163218.000,A,3732.3186,N,12217.8779,W,0.04,279.55,140318,,,D*7E

$GPRMC,163225.000,A,3732.3186,N,12217.8779,W,0.02,279.55,140318,,,D*76

$GPRMC,163232.000,A,3732.3186,N,12217.8780,W,0.07,279.55,140318,,,D*73

$GPRMC,163239.000,A,3732.3186,N,12217.8780,W,0.07,279.55,140318,,,D*78

$GPRMC,163246.000,A,3732.3186,N,12217.8780,W,0.03,279.55,140318,,,D*74

$GPRMC,163253.000,A,3732.3186,N,12217.8780,W,0.04,279.55,140318,,,D*77

$GPRMC,163300.000,A,3732.3186,N,12217.8780,W,0.02,279.55,140318,,,D*76

$GPRMC,163307.000,A,3732.3186,N,12217.8780,W,0.01,279.55,140318,,,D*72

$GPRMC,163314.000,A,3732.3186,N,12217.8780,W,0.02,279.55,140318,,,D*73

$GPRMC,163321.000,A,3732.3186,N,12217.8780,W,0.01,279.55,140318,,,D*76

$GPRMC,163328.000,A,3732.3186,N,12217.8780,W,0.01,279.55,140318,,,D*7F

$GPRMC,163335.000,A,3732.3186,N,12217.8780,W,0.03,279.55,140318,,,D*71

$GPRMC,163342.000,A,3732.3186,N,12217.8780,W,0.10,279.55,140318,,,D*73

$GPRMC,163349.000,A,3732.3186,N,12217.8780,W,0.02,279.55,140318,,,D*7B

$GPRMC,163356.000,A,3732.3186,N,12217.8780,W,0.01,279.55,140318,,,D*76

$GPRMC,163403.000,A,3732.3186,N,12217.8780,W,0.02,279.55,140318,,,D*72

$GPRMC,163410.000,A,3732.3186,N,12217.8780,W,0.03,279.55,140318,,,D*71

$GPRMC,163417.000,A,3732.3186,N,12217.8780,W,0.04,279.55,140318,,,D*71

$GPRMC,163424.000,A,3732.3186,N,12217.8780,W,0.06,279.55,140318,,,D*73

$GPRMC,163431.000,A,3732.3186,N,12217.8780,W,0.06,279.55,140318,,,D*77

$GPRMC,163438.000,A,3732.3186,N,12217.8780,W,0.01,279.55,140318,,,D*79

$GPRMC,163445.000,A,3732.3186,N,12217.8780,W,0.02,279.55,140318,,,D*70

$GPRMC,163452.000,A,3732.3186,N,12217.8780,W,0.02,279.55,140318,,,D*76

$GPRMC,163459.000,A,3732.3186,N,12217.8780,W,0.01,279.55,140318,,,D*7E

$GPRMC,163506.000,A,3732.3186,N,12217.8780,W,0.07,279.55,140318,,,D*73

$GPRMC,163513.000,A,3732.3186,N,12217.8780,W,0.05,279.55,140318,,,D*75

$GPRMC,163520.000,A,3732.3186,N,12217.8780,W,0.00,279.55,140318,,,D*70

$GPRMC,163527.000,A,3732.3186,N,12217.8780,W,0.01,279.55,140318,,,D*76

$GPRMC,163534.000,A,3732.3186,N,12217.8780,W,0.02,279.55,140318,,,D*77

$GPRMC,163541.000,A,3732.3186,N,12217.8781,W,0.23,279.55,140318,,,D*77

$GPRMC,163548.000,A,3732.3186,N,12217.8781,W,0.02,279.55,140318,,,D*7D

$GPRMC,163555.000,A,3732.3186,N,12217.8781,W,0.03,279.55,140318,,,D*70

$GPRMC,163602.000,A,3732.3186,N,12217.8781,W,0.01,279.55,140318,,,D*73

$GPRMC,163609.000,A,3732.3186,N,12217.8781,W,0.01,279.55,140318,,,D*78

$GPRMC,163616.000,A,3732.3186,N,12217.8781,W,0.01,279.55,140318,,,D*76

$GPRMC,163623.000,A,3732.3186,N,12217.8781,W,0.02,279.55,140318,,,D*73

$GPRMC,163630.000,A,3732.3186,N,12217.8781,W,0.04,279.55,140318,,,D*77

$GPRMC,163637.000,A,3732.3186,N,12217.8781,W,0.04,279.55,140318,,,D*70

$GPRMC,163644.000,A,3732.3186,N,12217.8781,W,0.07,279.55,140318,,,D*77

$GPRMC,163651.000,A,3732.3186,N,12217.8781,W,0.01,279.55,140318,,,D*75

$GPRMC,163658.000,A,3732.3186,N,12217.8781,W,0.03,279.55,140318,,,D*7E

$GPRMC,163705.000,A,3732.3185,N,12217.8782,W,0.04,279.55,140318,,,D*70

$GPRMC,163712.000,A,3732.3185,N,12217.8782,W,0.03,279.55,140318,,,D*71

$GPRMC,163719.000,A,3732.3185,N,12217.8782,W,0.12,279.55,140318,,,D*7A

$GPRMC,163726.000,A,3732.3185,N,12217.8782,W,0.08,279.55,140318,,,D*7D

$GPRMC,163733.000,A,3732.3185,N,12217.8782,W,0.01,279.55,140318,,,D*70

$GPRMC,163740.000,A,3732.3185,N,12217.8782,W,0.08,279.55,140318,,,D*7D

$GPRMC,163747.000,A,3732.3185,N,12217.8782,W,0.02,279.55,140318,,,D*70

$GPRMC,163754.000,A,3732.3185,N,12217.8782,W,0.01,279.55,140318,,,D*71

$GPRMC,163801.000,A,3732.3186,N,12217.8783,W,0.69,285.27,140318,,,D*74

$GPRMC,163808.000,A,3732.3181,N,12217.8786,W,0.35,285.27,140318,,,D*76

$GPRMC,163815.000,A,3732.3173,N,12217.8795,W,0.74,225.30,140318,,,D*7C

$GPRMC,163822.000,A,3732.3171,N,12217.8804,W,0.31,245.18,140318,,,D*70

$GPRMC,163829.000,A,3732.3169,N,12217.8809,W,0.17,253.56,140318,,,D*76

$GPRMC,163836.000,A,3732.3169,N,12217.8812,W,0.17,262.58,140318,,,D*7E

$GPRMC,163843.000,A,3732.3173,N,12217.8816,W,0.47,338.29,140318,,,D*7E

$GPRMC,163850.000,A,3732.3182,N,12217.8817,W,0.45,355.80,140318,,,D*79

$GPRMC,163857.000,A,3732.3191,N,12217.8817,W,0.46,357.38,140318,,,D*7E

$GPRMC,163904.000,A,3732.3201,N,12217.8822,W,0.60,335.18,140318,,,D*77

$GPRMC,163911.000,A,3732.3234,N,12217.8836,W,0.98,342.82,140318,,,D*74

$GPRMC,163918.000,A,3732.3372,N,12217.8935,W,10.82,326.87,140318,,,D*41

$GPRMC,163925.000,A,3732.3687,N,12217.9228,W,20.23,322.30,140318,,,D*46

$GPRMC,163932.000,A,3732.4083,N,12217.9602,W,24.96,323.76,140318,,,D*40

$GPRMC,163939.000,A,3732.4567,N,12218.0010,W,29.35,325.62,140318,,,D*40

$GPRMC,163946.000,A,3732.5116,N,12218.0456,W,32.95,326.40,140318,,,D*4E

$GPRMC,163953.000,A,3732.5717,N,12218.0968,W,35.80,327.07,140318,,,D*4C

$GPRMC,164000.000,A,3732.6368,N,12218.1536,W,39.46,325.73,140318,,,D*4A

$GPRMC,164007.000,A,3732.7042,N,12218.2113,W,41.01,326.06,140318,,,D*4A

$GPRMC,164014.000,A,3732.7764,N,12218.2744,W,44.27,325.79,140318,,,D*45

$GPRMC,164021.000,A,3732.8568,N,12218.3432,W,46.95,326.50,140318,,,D*42

$GPRMC,164028.000,A,3732.9382,N,12218.4108,W,48.34,326.48,140318,,,D*4F

$GPRMC,164035.000,A,3733.0244,N,12218.4816,W,49.92,329.62,140318,,,D*4C

$GPRMC,164042.000,A,3733.1169,N,12218.5375,W,51.73,337.20,140318,,,D*41

$GPRMC,164049.000,A,3733.2151,N,12218.5839,W,53.01,339.94,140318,,,D*47

$GPRMC,164056.000,A,3733.3176,N,12218.6316,W,55.05,337.87,140318,,,D*46

$GPRMC,164103.000,A,3733.4147,N,12218.6954,W,56.69,328.08,140318,,,D*4E

$GPRMC,164110.000,A,3733.5038,N,12218.7810,W,57.77,320.32,140318,,,D*4B

$GPRMC,164117.000,A,3733.5875,N,12218.8735,W,55.12,319.24,140318,,,D*46

$GPRMC,164124.000,A,3733.6593,N,12218.9578,W,48.63,317.91,140318,,,D*40

$GPRMC,164131.000,A,3733.7200,N,12219.0328,W,42.53,317.56,140318,,,D*41

$GPRMC,164138.000,A,3733.7755,N,12219.0934,W,36.24,318.51,140318,,,D*41

$GPRMC,164145.000,A,3733.8249,N,12219.1443,W,32.97,318.83,140318,,,D*43

$GPRMC,164152.000,A,3733.8723,N,12219.1955,W,30.64,320.03,140318,,,D*4B

$GPRMC,164159.000,A,3733.9138,N,12219.2401,W,26.82,321.00,140318,,,D*4F

$GPRMC,164206.000,A,3733.9529,N,12219.2825,W,24.94,319.45,140318,,,D*47

$GPRMC,164213.000,A,3733.9873,N,12219.3188,W,22.90,322.64,140318,,,D*47

$GPRMC,164220.000,A,3734.0223,N,12219.3538,W,22.32,319.73,140318,,,D*4F

$GPRMC,164227.000,A,3734.0531,N,12219.3856,W,20.50,318.99,140318,,,D*4A

$GPRMC,164234.000,A,3734.0776,N,12219.4107,W,14.36,319.83,140318,,,D*4E

$GPRMC,164241.000,A,3734.0946,N,12219.4302,W,9.95,321.93,140318,,,D*79

$GPRMC,164248.000,A,3734.1073,N,12219.4446,W,7.01,320.88,140318,,,D*71

$GPRMC,164255.000,A,3734.1165,N,12219.4552,W,4.50,324.25,140318,,,D*7B

$GPRMC,164302.000,A,3734.1208,N,12219.4631,W,3.46,322.41,140318,,,D*72

$GPRMC,164309.000,A,3734.1212,N,12219.4638,W,0.45,322.41,140318,,,D*7B

$GPRMC,164316.000,A,3734.1212,N,12219.4634,W,0.00,322.41,140318,,,D*78

$GPRMC,164323.000,A,3734.1214,N,12219.4629,W,0.00,322.41,140318,,,D*74

$GPRMC,164330.000,A,3734.1214,N,12219.4629,W,0.00,322.41,140318,,,D*76

$GPRMC,164337.000,A,3734.1216,N,12219.4628,W,0.04,322.41,140318,,,D*76

$GPRMC,164344.000,A,3734.1215,N,12219.4633,W,0.22,322.41,140318,,,D*7F

$GPRMC,164351.000,A,3734.1218,N,12219.4632,W,0.00,322.41,140318,,,D*77

$GPRMC,164358.000,A,3734.1225,N,12219.4635,W,0.16,322.41,140318,,,D*70

$GPRMC,164405.000,A,3734.1297,N,12219.4670,W,5.04,318.60,140318,,,D*7B

$GPRMC,164412.000,A,3734.1424,N,12219.4793,W,9.89,321.45,140318,,,D*7B

$GPRMC,164419.000,A,3734.1668,N,12219.5103,W,16.45,318.53,140318,,,D*47

$GPRMC,164426.000,A,3734.1939,N,12219.5450,W,20.70,320.44,140318,,,D*4D

$GPRMC,164433.000,A,3734.2296,N,12219.5817,W,24.28,320.89,140318,,,D*43

$GPRMC,164440.000,A,3734.2693,N,12219.6240,W,27.17,319.27,140318,,,D*4C

$GPRMC,164447.000,A,3734.3128,N,12219.6732,W,30.67,318.11,140318,,,D*48

$GPRMC,164454.000,A,3734.3603,N,12219.7302,W,33.20,314.34,140318,,,D*49

$GPRMC,164501.000,A,3734.4080,N,12219.7944,W,35.70,310.27,140318,,,D*4F

$GPRMC,164508.000,A,3734.4546,N,12219.8691,W,38.50,306.15,140318,,,D*48

$GPRMC,164515.000,A,3734.4968,N,12219.9529,W,39.85,300.25,140318,,,D*49

$GPRMC,164522.000,A,3734.5350,N,12220.0431,W,42.34,297.60,140318,,,D*4E

$GPRMC,164529.000,A,3734.5750,N,12220.1394,W,43.76,298.87,140318,,,D*49

$GPRMC,164536.000,A,3734.6185,N,12220.2365,W,41.19,299.49,140318,,,D*4F

$GPRMC,164543.000,A,3734.6582,N,12220.3250,W,36.39,299.17,140318,,,D*41

$GPRMC,164550.000,A,3734.6890,N,12220.3972,W,30.76,298.85,140318,,,D*41

$GPRMC,164557.000,A,3734.7140,N,12220.4545,W,24.81,300.39,140318,,,D*46

$GPRMC,164604.000,A,3734.7338,N,12220.5021,W,22.62,298.67,140318,,,D*48

$GPRMC,164611.000,A,3734.7561,N,12220.5484,W,19.60,300.04,140318,,,D*42

$GPRMC,164618.000,A,3734.7689,N,12220.5835,W,14.41,299.41,140318,,,D*46

$GPRMC,164625.000,A,3734.7789,N,12220.6098,W,12.54,298.87,140318,,,D*4C

$GPRMC,164632.000,A,3734.7897,N,12220.6367,W,11.58,297.18,140318,,,D*4F

$GPRMC,164639.000,A,3734.8018,N,12220.6614,W,8.69,302.33,140318,,,D*7B

$GPRMC,164646.000,A,3734.8040,N,12220.6688,W,0.62,316.33,140318,,,D*7D

$GPRMC,164653.000,A,3734.8047,N,12220.6688,W,0.66,316.33,140318,,,D*7A

$GPRMC,164700.000,A,3734.8051,N,12220.6675,W,1.14,316.33,140318,,,D*7C

$GPRMC,164707.000,A,3734.8053,N,12220.6660,W,0.44,316.33,140318,,,D*79

$GPRMC,164714.000,A,3734.8064,N,12220.6657,W,0.98,316.33,140318,,,D*7A

$GPRMC,164721.000,A,3734.8068,N,12220.6657,W,0.07,316.33,140318,,,D*76

$GPRMC,164728.000,A,3734.8078,N,12220.6666,W,0.00,316.33,140318,,,D*7B

$GPRMC,164735.000,A,3734.8111,N,12220.6773,W,6.61,301.08,140318,,,D*73

$GPRMC,164742.000,A,3734.8188,N,12220.6976,W,10.91,298.29,140318,,,D*42

$GPRMC,164749.000,A,3734.8319,N,12220.7302,W,16.41,298.14,140318,,,D*4E

$GPRMC,164756.000,A,3734.8482,N,12220.7704,W,20.68,297.39,140318,,,D*49

$GPRMC,164803.000,A,3734.8695,N,12220.8232,W,25.28,298.30,140318,,,D*4A

$GPRMC,164810.000,A,3734.8954,N,12220.8814,W,27.98,298.11,140318,,,D*4E

$GPRMC,164817.000,A,3734.9216,N,12220.9507,W,31.33,295.90,140318,,,D*49

$GPRMC,164824.000,A,3734.9498,N,12221.0285,W,34.26,297.18,140318,,,D*4F

$GPRMC,164831.000,A,3734.9846,N,12221.1121,W,39.11,297.68,140318,,,D*46

$GPRMC,164838.000,A,3735.0241,N,12221.2023,W,41.95,296.99,140318,,,D*46

$GPRMC,164845.000,A,3735.0652,N,12221.2985,W,44.70,298.39,140318,,,D*45

$GPRMC,164852.000,A,3735.1104,N,12221.4009,W,46.57,297.74,140318,,,D*4C

$GPRMC,164859.000,A,3735.1562,N,12221.5141,W,49.27,297.69,140318,,,D*4B

$GPRMC,164906.000,A,3735.2038,N,12221.6275,W,51.14,298.46,140318,,,D*45

$GPRMC,164913.000,A,3735.2526,N,12221.7429,W,52.77,297.31,140318,,,D*4C

$GPRMC,164920.000,A,3735.3032,N,12221.8616,W,54.57,297.73,140318,,,D*4E

$GPRMC,164927.000,A,3735.3524,N,12221.9805,W,54.79,297.33,140318,,,D*4E

$GPRMC,164934.000,A,3735.4044,N,12222.1040,W,58.00,297.80,140318,,,D*40

$GPRMC,164941.000,A,3735.4573,N,12222.2315,W,58.77,297.53,140318,,,D*4D

$GPRMC,164948.000,A,3735.5100,N,12222.3589,W,58.40,297.90,140318,,,D*4C

$GPRMC,164955.000,A,3735.5618,N,12222.4817,W,56.13,298.38,140318,,,D*46

$GPRMC,165002.000,A,3735.6083,N,12222.5944,W,50.11,297.75,140318,,,D*4F

$GPRMC,165009.000,A,3735.6529,N,12222.6965,W,44.54,298.92,140318,,,D*43

$GPRMC,165016.000,A,3735.6917,N,12222.7856,W,38.43,298.89,140318,,,D*4B

$GPRMC,165023.000,A,3735.7241,N,12222.8608,W,32.70,298.61,140318,,,D*42

$GPRMC,165030.000,A,3735.7536,N,12222.9231,W,26.67,302.44,140318,,,D*4E

$GPRMC,165037.000,A,3735.7819,N,12222.9732,W,25.27,308.17,140318,,,D*44

$GPRMC,165044.000,A,3735.8138,N,12223.0189,W,25.79,314.40,140318,,,D*4F

$GPRMC,165051.000,A,3735.8525,N,12223.0604,W,24.84,320.11,140318,,,D*41

$GPRMC,165058.000,A,3735.8900,N,12223.0982,W,24.10,321.14,140318,,,D*4B

$GPRMC,165105.000,A,3735.9241,N,12223.1315,W,19.97,322.93,140318,,,D*45

$GPRMC,165112.000,A,3735.9503,N,12223.1571,W,15.14,322.25,140318,,,D*4C

$GPRMC,165119.000,A,3735.9675,N,12223.1750,W,11.80,320.42,140318,,,D*4E

$GPRMC,165126.000,A,3735.9865,N,12223.1908,W,10.89,323.52,140318,,,D*44

$GPRMC,165133.000,A,3735.9990,N,12223.2074,W,9.36,319.53,140318,,,D*7E

$GPRMC,165140.000,A,3736.0092,N,12223.2219,W,7.47,312.86,140318,,,D*79

$GPRMC,165147.000,A,3736.0154,N,12223.2332,W,3.88,312.24,140318,,,D*72

$GPRMC,165154.000,A,3736.0163,N,12223.2375,W,1.68,312.15,140318,,,D*79

$GPRMC,165201.000,A,3736.0158,N,12223.2399,W,0.97,312.15,140318,,,D*71

$GPRMC,165208.000,A,3736.0155,N,12223.2416,W,0.16,312.15,140318,,,D*7C

$GPRMC,165215.000,A,3736.0154,N,12223.2507,W,2.37,258.12,140318,,,D*79

$GPRMC,165222.000,A,3736.0145,N,12223.2544,W,1.33,278.01,140318,,,D*7D

$GPRMC,165229.000,A,3736.0132,N,12223.2548,W,0.62,223.35,140318,,,D*76

$GPRMC,165236.000,A,3736.0136,N,12223.2574,W,1.01,291.02,140318,,,D*7A

$GPRMC,165243.000,A,3736.0169,N,12223.2627,W,2.34,297.35,140318,,,D*70

$GPRMC,165250.000,A,3736.0217,N,12223.2617,W,4.59,319.78,140318,,,D*78

$GPRMC,165257.000,A,3736.0342,N,12223.2624,W,9.41,320.58,140318,,,D*72

$GPRMC,165304.000,A,3736.0607,N,12223.2763,W,14.85,323.62,140318,,,D*4D

$GPRMC,165311.000,A,3736.0907,N,12223.3049,W,19.72,321.26,140318,,,D*4F

$GPRMC,165318.000,A,3736.1258,N,12223.3416,W,23.81,320.18,140318,,,D*41

$GPRMC,165325.000,A,3736.1646,N,12223.3820,W,26.68,319.36,140318,,,D*49

$GPRMC,165332.000,A,3736.2070,N,12223.4245,W,29.18,321.63,140318,,,D*42

$GPRMC,165339.000,A,3736.2544,N,12223.4724,W,31.40,321.18,140318,,,D*41

$GPRMC,165346.000,A,3736.3034,N,12223.5214,W,33.79,320.97,140318,,,D*43

$GPRMC,165353.000,A,3736.3571,N,12223.5744,W,36.28,321.50,140318,,,D*48

$GPRMC,165400.000,A,3736.4140,N,12223.6310,W,39.22,320.88,140318,,,D*4F

$GPRMC,165407.000,A,3736.4750,N,12223.6923,W,41.44,321.87,140318,,,D*44

$GPRMC,165414.000,A,3736.5402,N,12223.7584,W,44.74,321.13,140318,,,D*48

$GPRMC,165421.000,A,3736.6124,N,12223.8312,W,47.47,321.29,140318,,,D*40

$GPRMC,165428.000,A,3736.6887,N,12223.9077,W,49.12,322.19,140318,,,D*46

$GPRMC,165435.000,A,3736.7705,N,12223.9802,W,51.25,327.02,140318,,,D*46

$GPRMC,165442.000,A,3736.8561,N,12224.0483,W,52.38,327.04,140318,,,D*4B

$GPRMC,165449.000,A,3736.9454,N,12224.1171,W,54.29,328.82,140318,,,D*48

$GPRMC,165456.000,A,3737.0357,N,12224.1862,W,54.34,328.47,140318,,,D*44

$GPRMC,165503.000,A,3737.1266,N,12224.2526,W,50.89,330.08,140318,,,D*49

$GPRMC,165510.000,A,3737.2094,N,12224.3128,W,46.60,328.90,140318,,,D*44

$GPRMC,165517.000,A,3737.2829,N,12224.3691,W,41.64,329.23,140318,,,D*42

$GPRMC,165524.000,A,3737.3480,N,12224.4174,W,37.39,331.29,140318,,,D*4D

$GPRMC,165531.000,A,3737.4103,N,12224.4563,W,35.53,334.93,140318,,,D*48

$GPRMC,165538.000,A,3737.4695,N,12224.4892,W,31.00,335.05,140318,,,D*46

$GPRMC,165545.000,A,3737.5187,N,12224.5177,W,25.70,334.90,140318,,,D*45

$GPRMC,165552.000,A,3737.5617,N,12224.5421,W,23.75,335.53,140318,,,D*46

$GPRMC,165559.000,A,3737.6022,N,12224.5653,W,22.16,335.57,140318,,,D*49

$GPRMC,165606.000,A,3737.6410,N,12224.5871,W,21.00,335.96,140318,,,D*42

$GPRMC,165613.000,A,3737.6779,N,12224.6076,W,20.58,336.08,140318,,,D*4E

$GPRMC,165620.000,A,3737.7131,N,12224.6275,W,18.63,336.00,140318,,,D*4F

$GPRMC,165627.000,A,3737.7428,N,12224.6447,W,16.47,335.20,140318,,,D*4B

$GPRMC,165634.000,A,3737.7701,N,12224.6603,W,14.14,335.77,140318,,,D*45

$GPRMC,165641.000,A,3737.7921,N,12224.6728,W,10.15,335.61,140318,,,D*41

$GPRMC,165648.000,A,3737.8076,N,12224.6820,W,7.95,337.86,140318,,,D*7E

$GPRMC,165655.000,A,3737.8211,N,12224.6902,W,7.16,335.65,140318,,,D*74

$GPRMC,165702.000,A,3737.8294,N,12224.6961,W,2.81,336.54,140318,,,D*75

$GPRMC,165709.000,A,3737.8296,N,12224.6970,W,0.02,336.54,140318,,,D*75

$GPRMC,165716.000,A,3737.8297,N,12224.6969,W,0.01,336.54,140318,,,D*71

$GPRMC,165723.000,A,3737.8295,N,12224.6971,W,0.00,336.54,140318,,,D*7D

$GPRMC,165730.000,A,3737.8293,N,12224.6969,W,0.22,336.54,140318,,,D*70

$GPRMC,165737.000,A,3737.8294,N,12224.6975,W,0.18,336.54,140318,,,D*74

$GPRMC,165744.000,A,3737.8296,N,12224.6977,W,0.40,336.54,140318,,,D*7D

$GPRMC,165751.000,A,3737.8305,N,12224.6984,W,0.77,336.54,140318,,,D*7A

$GPRMC,165758.000,A,3737.8324,N,12224.6997,W,1.75,336.54,140318,,,D*71

$GPRMC,165805.000,A,3737.8399,N,12224.7046,W,5.38,340.01,140318,,,D*78

$GPRMC,165812.000,A,3737.8545,N,12224.7110,W,9.46,335.84,140318,,,D*71

$GPRMC,165819.000,A,3737.8780,N,12224.7234,W,14.54,337.68,140318,,,D*4B

$GPRMC,165826.000,A,3737.9127,N,12224.7432,W,20.23,338.45,140318,,,D*4A

$GPRMC,165833.000,A,3737.9553,N,12224.7609,W,24.77,344.60,140318,,,D*4A

$GPRMC,165840.000,A,3738.0078,N,12224.7758,W,30.35,351.48,140318,,,D*4C

$GPRMC,165848.000,A,3738.0792,N,12224.7833,W,34.10,358.22,140318,,,D*43

$GPRMC,165855.000,A,3738.1531,N,12224.7841,W,38.55,359.70,140318,,,D*4B

$GPRMC,165902.000,A,3738.2311,N,12224.7848,W,40.82,359.62,140318,,,D*40

$GPRMC,165909.000,A,3738.3145,N,12224.7859,W,44.52,359.39,140318,,,D*4E

$GPRMC,165916.000,A,3738.4033,N,12224.7868,W,46.80,359.38,140318,,,D*49

$GPRMC,165923.000,A,3738.4969,N,12224.7882,W,48.88,359.64,140318,,,D*42

$GPRMC,165930.000,A,3738.5946,N,12224.7838,W,51.01,4.66,140318,,,D*4D

$GPRMC,165937.000,A,3738.6949,N,12224.7670,W,52.72,10.62,140318,,,D*72

$GPRMC,165944.000,A,3738.7966,N,12224.7335,W,54.74,17.52,140318,,,D*7A

$GPRMC,165951.000,A,3738.8961,N,12224.6837,W,55.61,24.66,140318,,,D*7C

$GPRMC,165958.000,A,3738.9913,N,12224.6183,W,56.48,31.88,140318,,,D*7B

$GPRMC,170005.000,A,3739.0831,N,12224.5420,W,56.89,32.87,140318,,,D*79

$GPRMC,170012.000,A,3739.1780,N,12224.4634,W,58.41,33.69,140318,,,D*76

$GPRMC,170019.000,A,3739.2720,N,12224.3779,W,60.02,37.09,140318,,,D*75

$GPRMC,170026.000,A,3739.3665,N,12224.2858,W,61.47,37.72,140318,,,D*79

$GPRMC,170033.000,A,3739.4638,N,12224.1915,W,62.35,37.87,140318,,,D*75

$GPRMC,170040.000,A,3739.5607,N,12224.0957,W,63.22,37.74,140318,,,D*70

$GPRMC,170047.000,A,3739.6611,N,12223.9989,W,64.82,37.45,140318,,,D*71

$GPRMC,170054.000,A,3739.7617,N,12223.9017,W,65.04,37.03,140318,,,D*77

$GPRMC,170101.000,A,3739.8617,N,12223.8050,W,61.18,37.29,140318,,,D*7A

$GPRMC,170108.000,A,3739.9527,N,12223.7156,W,57.14,37.73,140318,,,D*7C

$GPRMC,170115.000,A,3740.0377,N,12223.6340,W,55.33,37.80,140318,,,D*7B

$GPRMC,170122.000,A,3740.1227,N,12223.5518,W,54.98,37.54,140318,,,D*7B

$GPRMC,170129.000,A,3740.2071,N,12223.4716,W,55.08,35.75,140318,,,D*76

$GPRMC,170136.000,A,3740.2987,N,12223.4052,W,54.29,23.68,140318,,,D*76

$GPRMC,170143.000,A,3740.3969,N,12223.3705,W,53.09,9.29,140318,,,D*4F

$GPRMC,170150.000,A,3740.4987,N,12223.3636,W,51.44,358.66,140318,,,D*4C

$GPRMC,170157.000,A,3740.5996,N,12223.3970,W,51.76,340.98,140318,,,D*4E

$GPRMC,170204.000,A,3740.6929,N,12223.4576,W,52.66,328.52,140318,,,D*4B

$GPRMC,170211.000,A,3740.7779,N,12223.5305,W,52.44,326.84,140318,,,D*43

$GPRMC,170218.000,A,3740.8619,N,12223.6041,W,52.03,325.32,140318,,,D*4F

$GPRMC,170225.000,A,3740.9456,N,12223.6789,W,52.96,325.56,140318,,,D*44

$GPRMC,170232.000,A,3741.0321,N,12223.7522,W,53.07,326.14,140318,,,D*43

$GPRMC,170239.000,A,3741.1211,N,12223.8274,W,56.03,326.09,140318,,,D*4D

$GPRMC,170246.000,A,3741.2128,N,12223.9057,W,56.68,326.25,140318,,,D*4E

$GPRMC,170253.000,A,3741.3088,N,12223.9763,W,58.10,332.18,140318,,,D*4A

$GPRMC,170300.000,A,3741.4151,N,12224.0349,W,58.90,338.82,140318,,,D*4C

$GPRMC,170307.000,A,3741.5272,N,12224.0778,W,60.17,346.16,140318,,,D*4E

$GPRMC,170314.000,A,3741.6451,N,12224.1043,W,61.37,352.88,140318,,,D*47

$GPRMC,170321.000,A,3741.7667,N,12224.1119,W,62.84,359.82,140318,,,D*43

$GPRMC,170328.000,A,3741.8905,N,12224.1106,W,64.74,0.10,140318,,,D*4D

$GPRMC,170335.000,A,3742.0135,N,12224.1092,W,61.99,359.99,140318,,,D*45

$GPRMC,170342.000,A,3742.1279,N,12224.1088,W,57.10,0.29,140318,,,D*44

$GPRMC,170349.000,A,3742.2328,N,12224.1085,W,51.82,0.15,140318,,,D*46

$GPRMC,170356.000,A,3742.3287,N,12224.1083,W,48.47,359.74,140318,,,D*42

$GPRMC,170403.000,A,3742.4213,N,12224.1080,W,47.16,0.07,140318,,,D*4C

$GPRMC,170410.000,A,3742.5123,N,12224.1085,W,46.65,359.91,140318,,,D*4F

$GPRMC,170417.000,A,3742.6021,N,12224.1035,W,45.60,6.77,140318,,,D*44

$GPRMC,170424.000,A,3742.6897,N,12224.0804,W,46.14,13.29,140318,,,D*75

$GPRMC,170431.000,A,3742.7773,N,12224.0542,W,45.70,13.37,140318,,,D*74

$GPRMC,170438.000,A,3742.8638,N,12224.0289,W,45.63,13.09,140318,,,D*73

$GPRMC,170445.000,V,,,,,45.71,12.88,140318,,,N*45

$GPRMC,170452.000,V,,,,,18.65,12.89,140318,,,N*4F

$GPRMC,170459.000,V,,,,,0.03,12.89,140318,,,N*7D

$GPRMC,170506.000,V,,,,,0.00,12.89,140318,,,N*75

$GPRMC,170513.000,A,3743.3329,N,12223.8434,W,53.25,15.88,140318,,,D*71

$GPRMC,170520.000,A,3743.4316,N,12223.8096,W,54.40,13.97,140318,,,D*7A

$GPRMC,170527.000,A,3743.5363,N,12223.7858,W,55.83,7.61,140318,,,D*49

$GPRMC,170534.000,A,3743.6447,N,12223.7718,W,56.97,6.29,140318,,,D*49

$GPRMC,170541.000,A,3743.7566,N,12223.7569,W,58.33,6.47,140318,,,D*44

$GPRMC,170549.000,A,3743.8854,N,12223.7378,W,58.06,7.17,140318,,,D*4B

$GPRMC,170556.000,V,,,,,58.29,7.12,140318,,,E*7B

$GPRMC,170603.000,V,,,,,48.53,7.13,140318,,,N*7E

$GPRMC,170610.000,V,,,,,8.09,341.61,140318,,,N*43

$GPRMC,170617.000,A,3744.3637,N,12223.6725,W,61.39,6.08,140318,,,D*40

$GPRMC,170624.000,A,3744.4822,N,12223.6566,W,62.18,6.14,140318,,,D*45

$GPRMC,170631.000,A,3744.6023,N,12223.6413,W,60.21,6.08,140318,,,D*4C

$GPRMC,170638.000,A,3744.7142,N,12223.6265,W,55.65,6.32,140318,,,D*4A

$GPRMC,170645.000,A,3744.8172,N,12223.6121,W,51.47,5.82,140318,,,D*43

$GPRMC,170652.000,A,3744.9107,N,12223.5979,W,45.93,6.69,140318,,,D*4A

$GPRMC,170659.000,A,3744.9942,N,12223.5852,W,41.75,5.99,140318,,,D*40

$GPRMC,170706.000,A,3745.0694,N,12223.5748,W,37.25,6.16,140318,,,D*43

$GPRMC,170714.000,A,3745.1476,N,12223.5653,W,34.91,4.51,140318,,,D*49

$GPRMC,170721.000,A,3745.2154,N,12223.5587,W,35.00,4.40,140318,,,D*4A

$GPRMC,170728.000,V,,,,,34.66,4.15,140318,,,N*7E

$GPRMC,170735.000,V,,,,,17.86,345.47,140318,,,N*7C

$GPRMC,170742.000,V,,,,,6.01,352.81,140318,,,N*4F

$GPRMC,170749.000,V,,,,,0.00,3.94,140318,,,N*40

$GPRMC,170756.000,V,,,,,0.14,23.74,140318,,,N*77

$GPRMC,170803.000,V,,,,,0.11,23.74,140318,,,N*7D

$GPRMC,170810.000,V,,,,,0.00,23.74,140318,,,N*7F

$GPRMC,170817.000,V,,,,,0.00,23.74,140318,,,N*78

$GPRMC,170824.000,V,,,,,0.00,23.74,140318,,,N*78

$GPRMC,170831.000,V,,,,,0.00,23.74,140318,,,N*7C

$GPRMC,170838.000,V,,,,,0.11,339.29,140318,,,N*45

$GPRMC,170845.000,A,3745.9300,N,12223.6002,W,18.90,343.05,140318,,,D*43

$GPRMC,170852.000,A,3745.9464,N,12223.6129,W,10.12,305.95,140318,,,D*41

$GPRMC,170859.000,A,3745.9685,N,12223.6595,W,22.10,307.66,140318,,,D*49

$GPRMC,170906.000,A,3745.9951,N,12223.6916,W,16.19,319.06,140318,,,D*44

$GPRMC,170913.000,A,3746.0205,N,12223.7194,W,17.60,314.14,140318,,,D*42

$GPRMC,170920.000,A,3746.0472,N,12223.7577,W,20.23,311.13,140318,,,D*4C

$GPRMC,170927.000,A,3746.1236,N,12223.8606,W,18.99,316.68,140318,,,D*47

$GPRMC,170934.000,A,3746.1570,N,12223.9002,W,17.58,320.67,140318,,,D*4B

$GPRMC,170941.000,A,3746.1798,N,12223.9317,W,17.84,314.48,140318,,,D*41

$GPRMC,170948.000,A,3746.2035,N,12223.9572,W,16.71,316.72,140318,,,D*4E

$GPRMC,170955.000,A,3746.2268,N,12223.9836,W,15.39,316.04,140318,,,D*4B

$GPRMC,171002.000,A,3746.2506,N,12224.0047,W,12.07,329.70,140318,,,D*4B

$GPRMC,171009.000,A,3746.2723,N,12224.0146,W,12.09,348.44,140318,,,D*4B

$GPRMC,171016.000,A,3746.2962,N,12224.0165,W,11.33,1.86,140318,,,D*45

$GPRMC,171023.000,A,3746.3164,N,12224.0120,W,10.84,14.57,140318,,,D*78

$GPRMC,171030.000,A,3746.3358,N,12224.0016,W,10.64,29.28,140318,,,D*7B

$GPRMC,171037.000,A,3746.3515,N,12223.9851,W,10.00,39.66,140318,,,D*7F

$GPRMC,171044.000,A,3746.3664,N,12223.9683,W,10.02,43.66,140318,,,D*70

$GPRMC,171051.000,A,3746.3808,N,12223.9499,W,9.82,42.13,140318,,,D*4A

$GPRMC,171058.000,A,3746.3963,N,12223.9343,W,10.12,39.80,140318,,,D*78

$GPRMC,171105.000,A,3746.4149,N,12223.9156,W,11.34,40.10,140318,,,D*72

$GPRMC,171112.000,A,3746.4329,N,12223.8959,W,11.64,44.64,140318,,,D*74

$GPRMC,171119.000,A,3746.4512,N,12223.8746,W,12.17,46.17,140318,,,D*70

$GPRMC,171126.000,A,3746.4690,N,12223.8538,W,11.93,42.21,140318,,,D*70

$GPRMC,171133.000,A,3746.4852,N,12223.8341,W,11.46,44.77,140318,,,D*71

$GPRMC,171140.000,A,3746.4965,N,12223.8179,W,7.90,45.76,140318,,,D*45

$GPRMC,171147.000,A,3746.5047,N,12223.8073,W,5.21,43.81,140318,,,D*47

$GPRMC,171154.000,A,3746.5103,N,12223.7993,W,4.35,44.21,140318,,,D*45

$GPRMC,171201.000,A,3746.5158,N,12223.7922,W,4.37,42.32,140318,,,D*44

$GPRMC,171208.000,A,3746.5214,N,12223.7854,W,4.28,43.36,140318,,,D*4D

$GPRMC,171215.000,A,3746.5273,N,12223.7776,W,4.83,43.76,140318,,,D*4A

$GPRMC,171222.000,A,3746.5338,N,12223.7698,W,4.57,46.76,140318,,,D*4D

$GPRMC,171229.000,A,3746.5402,N,12223.7621,W,4.39,49.16,140318,,,D*4B

$GPRMC,171236.000,A,3746.5469,N,12223.7536,W,3.95,45.28,140318,,,D*4D

$GPRMC,171243.000,A,3746.5540,N,12223.7455,W,4.45,41.20,140318,,,D*47

$GPRMC,171250.000,A,3746.5587,N,12223.7391,W,2.79,48.96,140318,,,D*4C

$GPRMC,171257.000,A,3746.5613,N,12223.7369,W,0.83,48.96,140318,,,D*45

$GPRMC,171304.000,A,3746.5617,N,12223.7370,W,0.00,48.96,140318,,,D*45

$GPRMC,171311.000,A,3746.5619,N,12223.7369,W,0.50,48.96,140318,,,D*42

$GPRMC,171318.000,A,3746.5621,N,12223.7365,W,0.00,48.96,140318,,,D*49

$GPRMC,171325.000,A,3746.5624,N,12223.7362,W,0.18,48.96,140318,,,D*4C

$GPRMC,171332.000,A,3746.5626,N,12223.7359,W,0.26,48.96,140318,,,D*4D

$GPRMC,171339.000,A,3746.5630,N,12223.7358,W,0.04,48.96,140318,,,D*40

$GPRMC,171346.000,A,3746.5630,N,12223.7354,W,0.31,48.96,140318,,,D*42

$GPRMC,171353.000,A,3746.5632,N,12223.7350,W,0.09,48.96,140318,,,D*4B

$GPRMC,171400.000,A,3746.5630,N,12223.7350,W,0.32,48.96,140318,,,D*40

$GPRMC,171407.000,A,3746.5628,N,12223.7350,W,0.40,48.96,140318,,,D*4B

$GPRMC,171414.000,A,3746.5629,N,12223.7351,W,0.00,48.96,140318,,,D*4D

$GPRMC,171421.000,A,3746.5637,N,12223.7342,W,0.00,48.96,140318,,,D*46

$GPRMC,171428.000,A,3746.5670,N,12223.7330,W,0.00,48.96,140318,,,D*49

$GPRMC,171435.000,A,3746.5721,N,12223.7304,W,2.05,42.78,140318,,,D*4A

$GPRMC,171442.000,A,3746.5744,N,12223.7272,W,1.77,42.33,140318,,,D*40

$GPRMC,171449.000,A,3746.5767,N,12223.7233,W,1.80,47.37,140318,,,D*46

$GPRMC,171456.000,A,3746.5789,N,12223.7206,W,1.46,41.64,140318,,,D*44

$GPRMC,171503.000,A,3746.5805,N,12223.7191,W,1.63,36.99,140318,,,D*46

$GPRMC,171510.000,A,3746.5821,N,12223.7173,W,1.40,72.81,140318,,,D*46

$GPRMC,171517.000,A,3746.5836,N,12223.7151,W,1.81,46.48,140318,,,D*48

$GPRMC,171524.000,A,3746.5827,N,12223.7143,W,1.57,72.11,140318,,,D*4B

$GPRMC,171531.000,A,3746.5828,N,12223.7116,W,1.64,65.29,140318,,,D*4D

$GPRMC,171538.000,A,3746.5842,N,12223.7095,W,1.36,48.22,140318,,,D*41

$GPRMC,171545.000,A,3746.5850,N,12223.7057,W,0.95,21.30,140318,,,D*42

$GPRMC,171552.000,A,3746.5860,N,12223.7032,W,1.08,14.75,140318,,,D*46

$GPRMC,171559.000,A,3746.5876,N,12223.7003,W,1.13,9.38,140318,,,D*77

$GPRMC,171606.000,A,3746.5888,N,12223.6969,W,1.87,110.37,140318,,,D*70

$GPRMC,171613.000,A,3746.5882,N,12223.6950,W,1.49,97.56,140318,,,D*4F

$GPRMC,171620.000,A,3746.5864,N,12223.6943,W,1.87,84.20,140318,,,D*44

$GPRMC,171627.000,A,3746.5867,N,12223.6919,W,1.33,28.25,140318,,,D*43

$GPRMC,171634.000,A,3746.5875,N,12223.6901,W,0.46,33.10,140318,,,D*44

$GPRMC,171641.000,A,3746.5881,N,12223.6897,W,0.86,22.52,140318,,,D*49

$GPRMC,171648.000,A,3746.5898,N,12223.6892,W,1.41,19.10,140318,,,D*49

$GPRMC,171655.000,A,3746.5928,N,12223.6912,W,2.42,5.15,140318,,,D*7E

$GPRMC,171702.000,A,3746.5947,N,12223.6944,W,1.19,9.42,140318,,,D*74

$GPRMC,171709.000,A,3746.5950,N,12223.6958,W,1.76,29.61,140318,,,D*4E

$GPRMC,171716.000,A,3746.5971,N,12223.6985,W,1.45,23.73,140318,,,D*4A

$GPRMC,171723.000,A,3746.5991,N,12223.6990,W,1.71,43.73,140318,,,D*47

$GPRMC,171730.000,A,3746.5994,N,12223.6989,W,1.21,39.82,140318,,,D*4E

$GPRMC,171738.000,A,3746.5999,N,12223.7007,W,1.14,13.43,140318,,,D*46

$GPRMC,171745.000,A,3746.5987,N,12223.7008,W,0.77,30.08,140318,,,D*46

$GPRMC,171752.000,A,3746.5979,N,12223.7005,W,0.85,39.65,140318,,,D*43

$GPRMC,171759.000,A,3746.5969,N,12223.6992,W,0.90,64.05,140318,,,D*45

$GPRMC,171806.000,A,3746.5958,N,12223.7012,W,1.24,34.48,140318,,,D*40

$GPRMC,171813.000,A,3746.5979,N,12223.6997,W,1.26,35.01,140318,,,D*4C

$GPRMC,171820.000,A,3746.5990,N,12223.6994,W,0.94,39.53,140318,,,D*4B

$GPRMC,171827.000,A,3746.6008,N,12223.6991,W,2.88,46.99,140318,,,D*43

$GPRMC,171834.000,A,3746.6024,N,12223.6935,W,1.96,53.27,140318,,,D*4C

$GPRMC,171841.000,A,3746.6051,N,12223.6909,W,1.91,41.08,140318,,,D*4A

$GPRMC,171848.000,A,3746.6089,N,12223.6879,W,2.55,45.31,140318,,,D*45

$GPRMC,171855.000,A,3746.6107,N,12223.6829,W,2.60,31.06,140318,,,D*4A

$GPRMC,171902.000,A,3746.6111,N,12223.6802,W,2.29,48.38,140318,,,D*49

$GPRMC,171909.000,A,3746.6099,N,12223.6758,W,2.49,60.51,140318,,,D*40

$GPRMC,171916.000,A,3746.6124,N,12223.6750,W,2.60,19.51,140318,,,D*44

$GPRMC,171923.000,A,3746.6150,N,12223.6753,W,2.25,48.30,140318,,,D*40

$GPRMC,171930.000,A,3746.6167,N,12223.6738,W,2.44,48.52,140318,,,D*48

$GPRMC,171937.000,A,3746.6194,N,12223.6705,W,2.01,70.53,140318,,,D*46

$GPRMC,171944.000,A,3746.6241,N,12223.6680,W,2.38,66.92,140318,,,D*45

$GPRMC,171951.000,A,3746.6265,N,12223.6639,W,2.13,75.41,140318,,,D*40

$GPRMC,171958.000,A,3746.6262,N,12223.6592,W,2.49,57.01,140318,,,D*47

$GPRMC,172005.000,A,3746.6272,N,12223.6555,W,2.03,50.88,140318,,,D*47

$GPRMC,172012.000,A,3746.6316,N,12223.6502,W,2.64,53.07,140318,,,D*45

$GPRMC,172019.000,A,3746.6342,N,12223.6453,W,2.43,68.23,140318,,,D*41

$GPRMC,172026.000,A,3746.6353,N,12223.6406,W,2.88,48.86,140318,,,D*47

$GPRMC,172033.000,A,3746.6387,N,12223.6379,W,3.28,14.87,140318,,,D*46

$GPRMC,172040.000,A,3746.6411,N,12223.6326,W,2.97,27.61,140318,,,D*4D

$GPRMC,172047.000,A,3746.6418,N,12223.6291,W,2.90,24.56,140318,,,D*4E

$GPRMC,172054.000,A,3746.6433,N,12223.6253,W,2.60,36.30,140318,,,D*47

$GPRMC,172101.000,A,3746.6416,N,12223.6242,W,2.37,82.02,140318,,,D*4D

$GPRMC,172108.000,A,3746.6409,N,12223.6253,W,2.11,34.88,140318,,,D*41

$GPRMC,172115.000,A,3746.6426,N,12223.6277,W,1.46,31.72,140318,,,D*47

$GPRMC,172122.000,A,3746.6475,N,12223.6337,W,2.19,12.22,140318,,,D*4D

$GPRMC,172129.000,A,3746.6468,N,12223.6357,W,0.92,6.68,140318,,,D*76

$GPRMC,172136.000,A,3746.6486,N,12223.6375,W,1.15,20.40,140318,,,D*48

$GPRMC,172143.000,A,3746.6496,N,12223.6410,W,0.94,14.98,140318,,,D*45

$GPRMC,172150.000,A,3746.6503,N,12223.6421,W,1.36,31.52,140318,,,D*40

$GPRMC,172157.000,A,3746.6484,N,12223.6436,W,0.86,48.35,140318,,,D*4A

$GPRMC,172204.000,A,3746.6497,N,12223.6416,W,0.80,31.56,140318,,,D*42

$GPRMC,172211.000,A,3746.6494,N,12223.6373,W,0.84,21.56,140318,,,D*44

$GPRMC,172218.000,A,3746.6520,N,12223.6366,W,1.05,26.32,140318,,,D*4A

$GPRMC,172225.000,A,3746.6539,N,12223.6371,W,0.90,18.02,140318,,,D*49

$GPRMC,172232.000,A,3746.6530,N,12223.6374,W,0.64,29.52,140318,,,D*4F

$GPRMC,172239.000,A,3746.6533,N,12223.6356,W,0.89,49.94,140318,,,D*48

$GPRMC,172246.000,A,3746.6561,N,12223.6378,W,0.68,19.73,140318,,,D*48

$GPRMC,172253.000,A,3746.6574,N,12223.6439,W,0.59,12.35,140318,,,D*41

$GPRMC,172300.000,A,3746.6572,N,12223.6440,W,0.32,27.33,140318,,,D*43

$GPRMC,172307.000,A,3746.6571,N,12223.6412,W,0.63,53.76,140318,,,D*46

$GPRMC,172314.000,A,3746.6568,N,12223.6399,W,0.30,53.76,140318,,,D*4E

$GPRMC,172321.000,A,3746.6569,N,12223.6404,W,0.28,53.76,140318,,,D*43

$GPRMC,172328.000,A,3746.6571,N,12223.6408,W,0.09,53.76,140318,,,D*4C

$GPRMC,172335.000,A,3746.6556,N,12223.6387,W,0.45,41.91,140318,,,D*47

$GPRMC,172342.000,A,3746.6560,N,12223.6382,W,0.11,41.91,140318,,,D*46

$GPRMC,172349.000,A,3746.6566,N,12223.6391,W,0.57,337.87,140318,,,D*7E

$GPRMC,172356.000,A,3746.6582,N,12223.6429,W,0.31,358.71,140318,,,D*7E

$GPRMC,172403.000,A,3746.6592,N,12223.6419,W,0.67,37.99,140318,,,D*44

$GPRMC,172410.000,A,3746.6573,N,12223.6438,W,0.08,38.36,140318,,,D*49

$GPRMC,172417.000,A,3746.6570,N,12223.6440,W,0.34,38.36,140318,,,D*4D

$GPRMC,172424.000,A,3746.6554,N,12223.6426,W,0.62,143.16,140318,,,D*77

$GPRMC,172431.000,A,3746.6514,N,12223.6381,W,0.58,161.84,140318,,,D*7F

$GPRMC,172438.000,A,3746.6497,N,12223.6410,W,0.08,161.84,140318,,,D*76

$GPRMC,172445.000,A,3746.6494,N,12223.6406,W,0.31,161.84,140318,,,D*72

$GPRMC,172452.000,A,3746.6491,N,12223.6403,W,0.21,161.84,140318,,,D*75

$GPRMC,172459.000,A,3746.6485,N,12223.6344,W,1.13,76.91,140318,,,D*4C

$GPRMC,172506.000,A,3746.6500,N,12223.6209,W,2.08,54.94,140318,,,D*4F

$GPRMC,172513.000,A,3746.6522,N,12223.6163,W,0.84,314.98,140318,,,D*79

$GPRMC,172520.000,A,3746.6516,N,12223.6189,W,0.50,353.69,140318,,,D*7E

$GPRMC,172527.000,A,3746.6520,N,12223.6271,W,0.13,326.19,140318,,,D*7A

$GPRMC,172534.000,A,3746.6547,N,12223.6342,W,3.02,318.74,140318,,,D*7D

$GPRMC,172541.000,A,3746.6533,N,12223.6343,W,2.41,330.10,140318,,,D*73

$GPRMC,172548.000,A,3746.6544,N,12223.6364,W,2.70,320.56,140318,,,D*7E

$GPRMC,172555.000,A,3746.6589,N,12223.6351,W,2.73,317.03,140318,,,D*72

$GPRMC,172602.000,A,3746.6622,N,12223.6391,W,2.48,313.80,140318,,,D*7A

$GPRMC,172609.000,A,3746.6644,N,12223.6438,W,1.17,304.36,140318,,,D*77

$GPRMC,172616.000,V,,,,,2.81,321.58,140318,,,N*41

$GPRMC,172623.000,A,3746.6708,N,12223.6537,W,2.45,324.64,140318,,,D*79

$GPRMC,172630.000,A,3746.6744,N,12223.6597,W,2.76,310.00,140318,,,D*7C

$GPRMC,172637.000,A,3746.6781,N,12223.6658,W,3.09,324.82,140318,,,D*76

$GPRMC,172644.000,A,3746.6816,N,12223.6725,W,3.01,313.18,140318,,,D*77

$GPRMC,172651.000,A,3746.6849,N,12223.6789,W,2.53,316.05,140318,,,D*70

$GPRMC,172658.000,V,,,,,2.51,303.42,140318,,,N*4D

$GPRMC,172705.000,A,3746.6913,N,12223.6851,W,2.75,319.48,140318,,,D*76

$GPRMC,172712.000,A,3746.6930,N,12223.6874,W,2.57,309.35,140318,,,D*7D

$GPRMC,172719.000,A,3746.6966,N,12223.6915,W,2.31,316.20,140318,,,D*79

$GPRMC,172726.000,A,3746.6998,N,12223.6969,W,2.50,318.37,140318,,,D*70

$GPRMC,172733.000,A,3746.7033,N,12223.7020,W,2.53,317.99,140318,,,D*70

$GPRMC,172740.000,A,3746.7065,N,12223.7074,W,2.70,311.48,140318,,,D*7D

$GPRMC,172747.000,A,3746.7102,N,12223.7121,W,2.51,322.41,140318,,,D*71

$GPRMC,172754.000,A,3746.7129,N,12223.7171,W,2.38,316.84,140318,,,D*7E

$GPRMC,172801.000,A,3746.7160,N,12223.7224,W,2.04,314.47,140318,,,D*7D

$GPRMC,172808.000,A,3746.7199,N,12223.7235,W,2.84,318.24,140318,,,D*73

$GPRMC,172815.000,A,3746.7199,N,12223.7274,W,0.15,29.50,140318,,,D*42

$GPRMC,172822.000,A,3746.7197,N,12223.7275,W,0.02,29.50,140318,,,D*4F

$GPRMC,172829.000,A,3746.7197,N,12223.7275,W,0.18,29.50,140318,,,D*4F

$GPRMC,172836.000,A,3746.7196,N,12223.7276,W,0.05,29.50,140318,,,D*4F

$GPRMC,172843.000,A,3746.7196,N,12223.7276,W,0.01,29.50,140318,,,D*49

$GPRMC,172850.000,A,3746.7196,N,12223.7277,W,0.37,29.50,140318,,,D*4F

$GPRMC,172857.000,A,3746.7216,N,12223.7343,W,2.67,312.52,140318,,,D*7B

$GPRMC,172904.000,A,3746.7248,N,12223.7412,W,2.65,319.40,140318,,,D*7E

$GPRMC,172911.000,A,3746.7284,N,12223.7465,W,2.59,308.64,140318,,,D*73

$GPRMC,172918.000,A,3746.7321,N,12223.7510,W,2.44,323.09,140318,,,D*79

$GPRMC,172925.000,A,3746.7359,N,12223.7554,W,2.49,313.21,140318,,,D*7C

$GPRMC,172932.000,A,3746.7389,N,12223.7603,W,2.63,335.52,140318,,,D*7E

$GPRMC,172939.000,A,3746.7425,N,12223.7644,W,2.98,320.96,140318,,,D*7F

$GPRMC,172946.000,A,3746.7453,N,12223.7709,W,2.42,312.33,140318,,,D*77

$GPRMC,172953.000,A,3746.7482,N,12223.7781,W,2.68,317.84,140318,,,D*7E

$GPRMC,173000.000,A,3746.7525,N,12223.7806,W,2.50,321.22,140318,,,D*7E

$GPRMC,173007.000,A,3746.7573,N,12223.7832,W,2.65,320.61,140318,,,D*7D

$GPRMC,173014.000,A,3746.7613,N,12223.7865,W,2.38,317.09,140318,,,D*7A

$GPRMC,173021.000,A,3746.7647,N,12223.7905,W,2.93,329.99,140318,,,D*7F

$GPRMC,173028.000,A,3746.7668,N,12223.8008,W,2.87,316.80,140318,,,D*71

$GPRMC,173035.000,A,3746.7701,N,12223.8088,W,3.35,319.01,140318,,,D*75

$GPRMC,173042.000,A,3746.7735,N,12223.8118,W,2.28,322.84,140318,,,D*72

$GPRMC,173049.000,A,3746.7770,N,12223.8167,W,2.77,320.52,140318,,,D*73

$GPRMC,173056.000,A,3746.7807,N,12223.8208,W,2.30,316.27,140318,,,D*7C

$GPRMC,173103.000,A,3746.7849,N,12223.8244,W,2.93,320.51,140318,,,D*72

$GPRMC,173110.000,A,3746.7894,N,12223.8417,W,3.11,288.08,140318,,,D*74

$GPRMC,173117.000,A,3746.7862,N,12223.8554,W,2.76,294.15,140318,,,D*7D

$GPRMC,173124.000,A,3746.7850,N,12223.8658,W,1.93,296.20,140318,,,D*7F

$GPRMC,173131.000,A,3746.7805,N,12223.8786,W,1.21,301.47,140318,,,D*7E

$GPRMC,173138.000,A,3746.7784,N,12223.8987,W,2.66,354.62,140318,,,D*79

$GPRMC,173145.000,A,3746.7793,N,12223.9051,W,2.42,358.43,140318,,,D*7F

$GPRMC,173152.000,A,3746.7834,N,12223.9082,W,2.40,320.19,140318,,,D*77

$GPRMC,173159.000,A,3746.7868,N,12223.9119,W,2.77,304.54,140318,,,D*7D

$GPRMC,173206.000,A,3746.7907,N,12223.9168,W,2.85,313.53,140318,,,D*76

$GPRMC,173213.000,A,3746.7947,N,12223.9216,W,3.19,317.27,140318,,,D*7F

$GPRMC,173220.000,A,3746.7983,N,12223.9257,W,2.64,318.85,140318,,,D*7E

$GPRMC,173227.000,A,3746.8029,N,12223.9287,W,2.51,339.82,140318,,,D*70

$GPRMC,173234.000,A,3746.8066,N,12223.9339,W,2.74,317.55,140318,,,D*7C

$GPRMC,173241.000,A,3746.8117,N,12223.9356,W,2.42,348.80,140318,,,D*77

$GPRMC,173248.000,A,3746.8173,N,12223.9396,W,0.97,312.82,140318,,,D*77

$GPRMC,173255.000,A,3746.8193,N,12223.9418,W,2.84,327.24,140318,,,D*7E

$GPRMC,173302.000,A,3746.8259,N,12223.9517,W,2.92,314.82,140318,,,D*7D

$GPRMC,173309.000,A,3746.8270,N,12223.9596,W,2.95,313.27,140318,,,D*7B

$GPRMC,173316.000,A,3746.8301,N,12223.9664,W,3.23,317.14,140318,,,D*74

$GPRMC,173323.000,A,3746.8342,N,12223.9710,W,1.50,317.41,140318,,,D*71

$GPRMC,173330.000,A,3746.8344,N,12223.9718,W,0.30,340.17,140318,,,D*7B

$GPRMC,173337.000,A,3746.8376,N,12223.9702,W,3.12,21.78,140318,,,D*48

$GPRMC,173344.000,A,3746.8431,N,12223.9685,W,2.75,16.45,140318,,,D*4C

$GPRMC,173351.000,A,3746.8468,N,12223.9680,W,0.35,347.48,140318,,,D*7D

$GPRMC,173358.000,A,3746.8469,N,12223.9680,W,0.02,347.48,140318,,,D*71

$GPRMC,173405.000,A,3746.8471,N,12223.9680,W,0.12,347.48,140318,,,D*76

$GPRMC,173412.000,A,3746.8481,N,12223.9694,W,2.84,316.71,140318,,,D*79

$GPRMC,173419.000,A,3746.8520,N,12223.9750,W,2.93,310.32,140318,,,D*76

$GPRMC,173426.000,A,3746.8566,N,12223.9798,W,3.00,311.15,140318,,,D*73

$GPRMC,173433.000,A,3746.8611,N,12223.9833,W,2.58,338.60,140318,,,D*7F

$GPRMC,173440.000,A,3746.8680,N,12223.9825,W,3.84,8.67,140318,,,D*73

$GPRMC,173447.000,A,3746.8735,N,12223.9835,W,2.79,341.62,140318,,,D*72

$GPRMC,173454.000,A,3746.8762,N,12223.9890,W,2.97,334.25,140318,,,D*7C

$GPRMC,173501.000,A,3746.8797,N,12223.9930,W,2.45,349.32,140318,,,D*7F

$GPRMC,173508.000,A,3746.8854,N,12223.9953,W,3.13,1.60,140318,,,D*79

$GPRMC,173515.000,A,3746.8897,N,12223.9987,W,2.36,352.53,140318,,,D*70

$GPRMC,173522.000,A,3746.8941,N,12224.0025,W,2.60,349.86,140318,,,D*70

$GPRMC,173529.000,A,3746.8987,N,12224.0062,W,2.42,333.77,140318,,,D*71

$GPRMC,173536.000,A,3746.8996,N,12224.0166,W,2.08,334.82,140318,,,D*79

$GPRMC,173543.000,A,3746.8994,N,12224.0303,W,2.85,310.21,140318,,,D*72

$GPRMC,173550.000,A,3746.9024,N,12224.0348,W,2.70,311.59,140318,,,D*78

$GPRMC,173557.000,A,3746.9048,N,12224.0382,W,1.55,325.96,140318,,,D*73

$GPRMC,173604.000,A,3746.9092,N,12224.0413,W,2.26,337.37,140318,,,D*71

$GPRMC,173611.000,A,3746.9154,N,12224.0438,W,2.86,339.12,140318,,,D*74

$GPRMC,173618.000,A,3746.9236,N,12224.0506,W,2.09,336.36,140318,,,D*78

$GPRMC,173625.000,A,3746.9256,N,12224.0541,W,2.41,345.89,140318,,,D*7F

$GPRMC,173632.000,A,3746.9291,N,12224.0606,W,3.20,321.64,140318,,,D*75

$GPRMC,173639.000,A,3746.9323,N,12224.0675,W,2.23,1.23,140318,,,D*72

$GPRMC,173646.000,A,3746.9348,N,12224.0665,W,2.80,318.02,140318,,,D*77

$GPRMC,173653.000,A,3746.9371,N,12224.0701,W,2.96,318.33,140318,,,D*7F

$GPRMC,173700.000,A,3746.9418,N,12224.0746,W,2.97,318.18,140318,,,D*7B

$GPRMC,173707.000,A,3746.9458,N,12224.0800,W,2.71,314.15,140318,,,D*7C

$GPRMC,173714.000,A,3746.9499,N,12224.0851,W,2.89,318.17,140318,,,D*7E

$GPRMC,173721.000,A,3746.9541,N,12224.0904,W,2.86,316.05,140318,,,D*7F

$GPRMC,173728.000,A,3746.9575,N,12224.0955,W,2.93,318.29,140318,,,D*71

$GPRMC,173735.000,A,3746.9612,N,12224.1009,W,3.06,314.17,140318,,,D*72

$GPRMC,173742.000,A,3746.9650,N,12224.1059,W,2.73,315.61,140318,,,D*72

$GPRMC,173749.000,A,3746.9687,N,12224.1105,W,2.71,314.59,140318,,,D*73

$GPRMC,173756.000,A,3746.9729,N,12224.1137,W,2.87,310.72,140318,,,D*7D

$GPRMC,173803.000,A,3746.9761,N,12224.1194,W,2.87,312.60,140318,,,D*76

$GPRMC,173810.000,A,3746.9801,N,12224.1243,W,2.73,315.13,140318,,,D*7C

$GPRMC,173817.000,A,3746.9844,N,12224.1289,W,2.96,319.02,140318,,,D*7B

$GPRMC,173824.000,A,3746.9872,N,12224.1347,W,2.67,303.37,140318,,,D*7E

$GPRMC,173831.000,A,3746.9907,N,12224.1394,W,2.24,318.42,140318,,,D*78

$GPRMC,173838.000,A,3746.9936,N,12224.1435,W,2.63,303.36,140318,,,D*75

$GPRMC,173845.000,A,3746.9962,N,12224.1496,W,2.86,297.09,140318,,,D*7C

