
$GPRMC,155956.386,V,,,,,0.00,0.00,150318,,,N*45

$GPRMC,160003.386,V,,,,,0.00,0.00,150318,,,N*4A

$GPRMC,160010.401,V,,,,,0.02,229.38,150318,,,N*40

$GPRMC,160017.402,V,,,,,0.01,229.35,150318,,,N*4A

$GPRMC,160025.000,A,3732.7462,N,12216.5114,W,0.44,117.05,150318,,,A*75

$GPRMC,160032.000,A,3732.7469,N,12216.5121,W,0.15,46.88,150318,,,A*4A

$GPRMC,160039.000,A,3732.7439,N,12216.5084,W,0.33,43.33,150318,,,A*4B

$GPRMC,160046.000,A,3732.7435,N,12216.5081,W,0.01,85.24,150318,,,A*47

$GPRMC,160053.000,A,3732.7434,N,12216.5072,W,0.21,113.09,150318,,,A*7D

$GPRMC,160100.000,A,3732.7429,N,12216.5072,W,0.37,188.93,150318,,,A*70

$GPRMC,160107.000,A,3732.7420,N,12216.5072,W,0.44,202.60,150318,,,A*77

$GPRMC,160114.000,A,3732.7418,N,12216.5075,W,0.23,329.78,150318,,,A*79

$GPRMC,160121.000,A,3732.7420,N,12216.5075,W,0.19,68.92,150318,,,A*4F

$GPRMC,160128.000,A,3732.7423,N,12216.5069,W,0.52,65.09,150318,,,A*48

$GPRMC,160135.000,A,3732.7441,N,12216.5051,W,0.72,28.88,150318,,,A*49

$GPRMC,160142.000,A,3732.7450,N,12216.5043,W,0.43,20.52,150318,,,A*47

$GPRMC,160149.000,A,3732.7457,N,12216.5039,W,0.42,33.74,150318,,,A*41

$GPRMC,160156.000,A,3732.7470,N,12216.5036,W,0.61,12.33,150318,,,A*44

$GPRMC,160203.000,A,3732.7471,N,12216.5047,W,0.19,334.22,150318,,,A*78

$GPRMC,160210.000,A,3732.7470,N,12216.5048,W,0.15,329.29,150318,,,A*7F

$GPRMC,160217.000,A,3732.7472,N,12216.5048,W,0.19,132.79,150318,,,A*7B

$GPRMC,160224.000,A,3732.7455,N,12216.5045,W,0.46,153.11,150318,,,A*70

$GPRMC,160231.000,A,3732.7454,N,12216.5057,W,0.03,74.46,150318,,,A*41

$GPRMC,160238.000,A,3732.7454,N,12216.5057,W,0.09,276.04,150318,,,A*74

$GPRMC,160245.000,A,3732.7453,N,12216.5061,W,0.09,218.99,150318,,,A*70

$GPRMC,160253.000,A,3732.7312,N,12216.5071,W,0.37,47.58,150318,,,A*4C

$GPRMC,160300.000,A,3732.7334,N,12216.5087,W,0.25,116.11,150318,,,A*7D

$GPRMC,160307.000,A,3732.7330,N,12216.5083,W,0.21,92.90,150318,,,A*4A

$GPRMC,160314.000,A,3732.7331,N,12216.5082,W,0.06,232.29,150318,,,A*77

$GPRMC,160321.000,A,3732.7329,N,12216.5080,W,0.21,106.31,150318,,,A*72

$GPRMC,160328.000,A,3732.7327,N,12216.5073,W,0.37,123.07,150318,,,A*7C

$GPRMC,160335.000,A,3732.7323,N,12216.5067,W,0.34,125.85,150318,,,A*7E

$GPRMC,160342.000,A,3732.7320,N,12216.5062,W,0.30,126.58,150318,,,A*7F

$GPRMC,160349.000,A,3732.7317,N,12216.5058,W,0.25,173.76,150318,,,A*71

$GPRMC,160356.000,A,3732.7312,N,12216.5055,W,0.26,124.65,150318,,,A*74

$GPRMC,160403.000,A,3732.7308,N,12216.5051,W,0.50,151.81,150318,,,A*75

$GPRMC,160410.000,A,3732.7301,N,12216.5046,W,0.44,120.24,150318,,,A*74

$GPRMC,160417.000,A,3732.7294,N,12216.5039,W,0.42,136.74,150318,,,A*72

$GPRMC,160424.000,A,3732.7291,N,12216.5034,W,0.13,169.05,150318,,,A*72

$GPRMC,160431.000,A,3732.7294,N,12216.5036,W,0.21,7.91,150318,,,A*74

$GPRMC,160438.000,A,3732.7295,N,12216.5034,W,0.21,90.31,150318,,,A*4A

$GPRMC,160445.000,A,3732.7299,N,12216.5031,W,0.18,157.44,150318,,,A*7B

$GPRMC,160452.000,A,3732.7295,N,12216.5030,W,0.29,213.15,150318,,,A*75

$GPRMC,160459.000,A,3732.7293,N,12216.5033,W,0.26,254.29,150318,,,A*78

$GPRMC,160506.000,A,3732.7295,N,12216.5039,W,0.30,285.95,150318,,,A*73

$GPRMC,160513.000,A,3732.7296,N,12216.5043,W,0.31,272.79,150318,,,A*72

$GPRMC,160520.000,A,3732.7299,N,12216.5049,W,0.42,296.30,150318,,,A*74

$GPRMC,160527.000,A,3732.7306,N,12216.5055,W,0.32,341.17,150318,,,A*70

$GPRMC,160534.000,A,3732.7308,N,12216.5056,W,0.16,344.49,150318,,,A*77

$GPRMC,160541.000,A,3732.7312,N,12216.5056,W,0.15,298.59,150318,,,A*7C

$GPRMC,160548.000,A,3732.7312,N,12216.5060,W,0.04,139.95,150318,,,A*78

$GPRMC,160555.000,A,3732.7313,N,12216.5060,W,0.28,1.69,150318,,,A*72

$GPRMC,160602.000,A,3732.7318,N,12216.5063,W,0.52,323.47,150318,,,A*79

$GPRMC,160609.000,A,3732.7324,N,12216.5067,W,0.29,325.94,150318,,,A*7D

$GPRMC,160616.000,A,3732.7328,N,12216.5073,W,0.43,329.72,150318,,,A*72

$GPRMC,160623.000,A,3732.7335,N,12216.5080,W,0.31,307.65,150318,,,A*7B

$GPRMC,160630.000,A,3732.7338,N,12216.5087,W,0.20,294.99,150318,,,A*7B

$GPRMC,160637.000,A,3732.7342,N,12216.5104,W,0.27,181.19,150318,,,A*73

$GPRMC,160644.000,A,3732.7339,N,12216.5106,W,0.04,172.80,150318,,,A*74

$GPRMC,160651.000,A,3732.7340,N,12216.5110,W,0.23,304.28,150318,,,A*7D

$GPRMC,160658.000,A,3732.7342,N,12216.5112,W,0.14,30.22,150318,,,A*4E

$GPRMC,160705.000,A,3732.7351,N,12216.5119,W,0.16,137.84,150318,,,A*76

$GPRMC,160712.000,A,3732.7355,N,12216.5128,W,0.04,86.28,150318,,,A*48

$GPRMC,160719.000,A,3732.7356,N,12216.5126,W,0.20,3.04,150318,,,A*7B

$GPRMC,160726.000,A,3732.7360,N,12216.5127,W,0.10,85.70,150318,,,A*4D

$GPRMC,160733.000,A,3732.7373,N,12216.5141,W,0.13,58.78,150318,,,A*40

$GPRMC,160740.000,A,3732.7386,N,12216.5150,W,0.19,47.18,150318,,,A*4C

$GPRMC,160747.000,A,3732.7388,N,12216.5150,W,0.41,292.50,150318,,,A*7E

$GPRMC,160754.000,A,3732.7391,N,12216.5155,W,0.12,294.49,150318,,,A*79

$GPRMC,160801.000,A,3732.7394,N,12216.5162,W,0.41,293.33,150318,,,A*7B

$GPRMC,160808.000,A,3732.7399,N,12216.5166,W,0.33,320.63,150318,,,A*72

$GPRMC,160815.000,A,3732.7403,N,12216.5169,W,0.25,324.51,150318,,,A*77

$GPRMC,160822.000,A,3732.7407,N,12216.5172,W,0.13,11.69,150318,,,A*46

$GPRMC,160829.000,A,3732.7408,N,12216.5174,W,0.14,252.82,150318,,,A*73

$GPRMC,160836.000,A,3732.7407,N,12216.5178,W,0.05,296.86,150318,,,A*72

$GPRMC,160843.000,A,3732.7407,N,12216.5180,W,0.04,340.21,150318,,,A*71

$GPRMC,160850.000,A,3732.7410,N,12216.5178,W,0.14,350.51,150318,,,A*75

$GPRMC,160857.000,A,3732.7411,N,12216.5179,W,0.24,316.56,150318,,,A*74

$GPRMC,160904.000,A,3732.7416,N,12216.5185,W,0.43,324.50,150318,,,A*71

$GPRMC,160911.000,A,3732.7422,N,12216.5189,W,0.34,348.58,150318,,,A*7C

$GPRMC,160918.000,A,3732.7428,N,12216.5192,W,0.28,349.54,150318,,,A*75

$GPRMC,160925.000,A,3732.7432,N,12216.5193,W,0.20,331.96,150318,,,A*78

$GPRMC,160932.000,A,3732.7434,N,12216.5197,W,0.37,263.93,150318,,,A*79

$GPRMC,160939.000,A,3732.7436,N,12216.5203,W,0.25,299.66,150318,,,A*72

$GPRMC,160946.000,A,3732.7440,N,12216.5206,W,0.17,341.22,150318,,,A*7B

$GPRMC,160954.000,A,3732.7442,N,12216.5209,W,0.22,2.09,150318,,,A*7E

$GPRMC,161001.000,A,3732.7445,N,12216.5210,W,0.39,349.02,150318,,,A*74

$GPRMC,161008.000,A,3732.7449,N,12216.5210,W,0.05,301.28,150318,,,A*7A

$GPRMC,161015.000,A,3732.7449,N,12216.5212,W,0.15,339.04,150318,,,A*70

$GPRMC,161022.000,A,3732.7453,N,12216.5212,W,0.19,14.16,150318,,,A*4C

$GPRMC,161029.000,A,3732.7456,N,12216.5209,W,0.16,5.24,150318,,,A*76

$GPRMC,161036.000,A,3732.7460,N,12216.5208,W,0.39,350.78,150318,,,A*7B

$GPRMC,161043.000,A,3732.7467,N,12216.5209,W,0.39,7.55,150318,,,A*71

$GPRMC,161050.000,A,3732.7472,N,12216.5210,W,0.17,35.41,150318,,,A*47

$GPRMC,161057.000,A,3732.7474,N,12216.5207,W,0.06,356.39,150318,,,A*79

$GPRMC,161104.000,A,3732.7471,N,12216.5206,W,0.15,140.16,150318,,,A*70

$GPRMC,161111.000,A,3732.7467,N,12216.5202,W,0.25,134.26,150318,,,A*74

$GPRMC,161118.000,A,3732.7460,N,12216.5198,W,0.36,156.91,150318,,,A*70

$GPRMC,161125.000,A,3732.7456,N,12216.5196,W,0.24,301.02,150318,,,A*7C

$GPRMC,161132.000,A,3732.7456,N,12216.5200,W,0.03,317.96,150318,,,A*79

$GPRMC,161139.000,A,3732.7457,N,12216.5200,W,0.24,274.13,150318,,,A*7F

$GPRMC,161146.000,A,3732.7454,N,12216.5207,W,0.36,245.95,150318,,,A*7C

$GPRMC,161153.000,A,3732.7453,N,12216.5213,W,0.22,278.96,150318,,,A*72

$GPRMC,161200.000,A,3732.7452,N,12216.5216,W,0.11,184.73,150318,,,A*78

$GPRMC,161207.000,A,3732.7447,N,12216.5213,W,0.42,156.90,150318,,,A*7A

$GPRMC,161214.000,A,3732.7452,N,12216.5195,W,0.26,137.77,150318,,,A*7D

$GPRMC,161221.000,A,3732.7427,N,12216.5197,W,0.48,150.95,150318,,,A*7E

$GPRMC,161228.000,A,3732.7419,N,12216.5191,W,0.40,152.61,150318,,,A*7D

$GPRMC,161235.000,A,3732.7412,N,12216.5185,W,0.59,134.77,150318,,,A*70

$GPRMC,161242.000,A,3732.7404,N,12216.5182,W,0.20,148.76,150318,,,A*74

$GPRMC,161249.000,A,3732.7401,N,12216.5179,W,0.37,187.54,150318,,,A*7B

$GPRMC,161256.000,A,3732.7397,N,12216.5178,W,0.04,33.77,150318,,,A*43

$GPRMC,161303.000,A,3732.7395,N,12216.5177,W,0.24,176.26,150318,,,A*79

$GPRMC,161310.000,A,3732.7395,N,12216.5176,W,0.17,34.60,150318,,,A*4F

$GPRMC,161317.000,A,3732.7393,N,12216.5175,W,0.24,180.02,150318,,,A*77

$GPRMC,161324.000,A,3732.7392,N,12216.5176,W,0.10,24.58,150318,,,A*42

$GPRMC,161331.000,A,3732.7389,N,12216.5173,W,0.23,146.57,150318,,,A*73

$GPRMC,161338.000,A,3732.7385,N,12216.5172,W,0.20,158.10,150318,,,A*78

$GPRMC,161345.000,A,3732.7384,N,12216.5172,W,0.09,212.28,150318,,,A*7E

$GPRMC,161352.000,A,3732.7383,N,12216.5171,W,0.12,144.78,150318,,,A*73

$GPRMC,161400.000,A,3732.7382,N,12216.5165,W,0.45,95.22,150318,,,A*47

$GPRMC,161407.000,A,3732.7384,N,12216.5159,W,0.04,229.78,150318,,,A*76

$GPRMC,161414.000,A,3732.7383,N,12216.5159,W,0.05,43.85,150318,,,A*4E

$GPRMC,161421.000,A,3732.7383,N,12216.5160,W,0.12,226.66,150318,,,A*78

$GPRMC,161428.000,A,3732.7381,N,12216.5160,W,0.10,126.09,150318,,,A*7B

$GPRMC,161435.000,A,3732.7380,N,12216.5160,W,0.12,133.52,150318,,,A*7E

$GPRMC,161442.000,A,3732.7379,N,12216.5158,W,0.22,69.34,150318,,,A*4E

$GPRMC,161449.000,A,3732.7378,N,12216.5155,W,0.15,11.81,150318,,,A*4C

$GPRMC,161456.000,A,3732.7379,N,12216.5154,W,0.23,52.53,150318,,,A*4F

$GPRMC,161503.000,A,3732.7378,N,12216.5153,W,0.08,293.11,150318,,,A*78

$GPRMC,161510.000,A,3732.7380,N,12216.5157,W,0.25,312.71,150318,,,A*78

$GPRMC,161517.000,A,3732.7382,N,12216.5159,W,0.14,46.05,150318,,,A*40

$GPRMC,161524.000,A,3732.7383,N,12216.5160,W,0.07,169.79,150318,,,A*7E

$GPRMC,161531.000,A,3732.7380,N,12216.5159,W,0.29,114.00,150318,,,A*7B

$GPRMC,161538.000,A,3732.7376,N,12216.5153,W,0.40,141.47,150318,,,A*7D

$GPRMC,161545.000,A,3732.7376,N,12216.5148,W,0.10,162.62,150318,,,A*7E

$GPRMC,161552.000,A,3732.7377,N,12216.5144,W,0.56,66.73,150318,,,A*42

$GPRMC,161559.000,A,3732.7388,N,12216.5159,W,0.24,235.78,150318,,,A*7F

$GPRMC,161606.000,A,3732.7389,N,12216.5155,W,0.06,326.39,150318,,,A*7D

$GPRMC,161613.000,A,3732.7388,N,12216.5156,W,1.19,255.20,150318,,,A*79

$GPRMC,161620.000,A,3732.7401,N,12216.5192,W,0.24,14.99,150318,,,A*4D

$GPRMC,161627.000,A,3732.7405,N,12216.5190,W,0.15,130.02,150318,,,A*7B

$GPRMC,161634.000,A,3732.7405,N,12216.5188,W,0.15,323.41,150318,,,A*77

$GPRMC,161641.000,A,3732.7406,N,12216.5187,W,0.17,25.28,150318,,,A*41

$GPRMC,161648.000,A,3732.7408,N,12216.5182,W,0.29,114.69,150318,,,A*78

$GPRMC,161655.000,A,3732.7407,N,12216.5181,W,0.04,341.56,150318,,,A*79

$GPRMC,161702.000,A,3732.7407,N,12216.5180,W,0.04,303.24,150318,,,A*78

$GPRMC,161709.000,A,3732.7407,N,12216.5180,W,0.06,15.78,150318,,,A*4C

$GPRMC,161716.000,A,3732.7407,N,12216.5180,W,0.01,76.50,150318,,,A*4A

$GPRMC,161723.000,A,3732.7407,N,12216.5181,W,0.01,145.15,150318,,,A*7D

$GPRMC,161730.000,A,3732.7407,N,12216.5181,W,0.02,267.56,150318,,,A*78

$GPRMC,161737.000,A,3732.7407,N,12216.5182,W,0.02,244.88,150318,,,A*7E

$GPRMC,161744.000,A,3732.7403,N,12216.5195,W,0.04,249.88,150318,,,A*73

$GPRMC,161751.000,A,3732.7402,N,12216.5207,W,0.03,248.62,150318,,,A*7C

$GPRMC,161758.000,A,3732.7403,N,12216.5207,W,0.02,331.80,150318,,,A*76

$GPRMC,161805.000,A,3732.7403,N,12216.5207,W,0.02,37.18,150318,,,A*45

$GPRMC,161812.000,A,3732.7403,N,12216.5208,W,0.01,254.20,150318,,,A*73

$GPRMC,161819.000,A,3732.7403,N,12216.5208,W,0.03,311.77,150318,,,A*78

$GPRMC,161820.000,A,3732.7403,N,12216.5208,W,0.01,308.65,150318$GPRMC,161827.000,A,3732.7404,N,12216.5208,W,0.04,6.14,

$GPRMC,161834.000,A,3732.7404,N,12216.5208,W,0.08,7.54,150318,,,A*7E

$GPRMC,161841.000,A,3732.7404,N,12216.5209,W,0.02,253.87,150318,,,A*7A

$GPRMC,161848.000,A,3732.7404,N,12216.5209,W,0.04,304.35,150318,,,A*7F

$GPRMC,161855.000,A,3732.7404,N,12216.5210,W,0.01,269.41,150318,,,A*77

$GPRMC,161902.000,A,3732.7404,N,12216.5210,W,0.07,280.48,150318,,,A*7C

$GPRMC,161909.000,A,3732.7404,N,12216.5211,W,0.33,267.16,150318,,,A*73

$GPRMC,161916.000,A,3732.7385,N,12216.5264,W,1.12,182.60,150318,,,A*7A

$GPRMC,161923.000,A,3732.7382,N,12216.5283,W,0.38,36.44,150318,,,D*46

$GPRMC,161930.000,A,3732.7379,N,12216.5285,W,0.13,98.87,150318,,,D*44

$GPRMC,161937.000,A,3732.7377,N,12216.5294,W,0.08,86.54,150318,,,D*46

$GPRMC,161944.000,A,3732.7377,N,12216.5296,W,0.02,151.90,150318,,,D*79

$GPRMC,161951.000,A,3732.7378,N,12216.5295,W,0.03,210.39,150318,,,D*75

$GPRMC,161958.000,A,3732.7378,N,12216.5293,W,0.01,133.14,150318,,,D*75

$GPRMC,162005.000,A,3732.7379,N,12216.5293,W,0.01,2.69,150318,,,D*7F

$GPRMC,162012.000,A,3732.7379,N,12216.5293,W,0.02,229.51,150318,,,D*7A

$GPRMC,162019.000,A,3732.7379,N,12216.5294,W,0.02,302.25,150318,,,D*7D

$GPRMC,162026.000,A,3732.7380,N,12216.5296,W,0.03,219.49,150318,,,D*75

$GPRMC,162033.000,A,3732.7380,N,12216.5296,W,0.03,59.05,150318,,,D*4F

$GPRMC,162040.000,A,3732.7380,N,12216.5296,W,0.01,18.81,150318,,,D*40

$GPRMC,162047.000,A,3732.7380,N,12216.5296,W,0.03,127.98,150318,,,D*70

$GPRMC,162054.000,A,3732.7380,N,12216.5296,W,0.02,33.99,150318,,,D*46

$GPRMC,162101.000,A,3732.7380,N,12216.5296,W,0.03,321.91,150318,,,D*7E

$GPRMC,162108.000,A,3732.7382,N,12216.5296,W,0.01,63.36,150318,,,D*4F

$GPRMC,162115.000,A,3732.7382,N,12216.5296,W,0.02,334.90,150318,,,D*7D

$GPRMC,162122.000,A,3732.7382,N,12216.5296,W,0.01,269.84,150318,,,D*76

$GPRMC,162129.000,A,3732.7379,N,12216.5305,W,1.20,254.77,150318,,,D*72

$GPRMC,162136.000,A,3732.7365,N,12216.5340,W,1.72,343.55,150318,,,D*70

$GPRMC,162143.000,A,3732.7458,N,12216.5551,W,12.41,297.96,150318,,,D*48

$GPRMC,162150.000,A,3732.7565,N,12216.5668,W,7.70,3.32,150318,,,D*7B

$GPRMC,162157.000,A,3732.7806,N,12216.5498,W,19.80,30.84,150318,,,D*74

$GPRMC,162204.000,A,3732.8203,N,12216.5238,W,25.32,25.37,150318,,,D*77

$GPRMC,162211.000,A,3732.8653,N,12216.5121,W,22.71,357.95,150318,,,D*47

$GPRMC,162218.000,A,3732.9075,N,12216.5308,W,24.50,326.82,150318,,,D*41

$GPRMC,162225.000,A,3732.9405,N,12216.5729,W,24.90,306.79,150318,,,D*41

$GPRMC,162232.000,A,3732.9723,N,12216.6250,W,27.01,306.63,150318,,,D*48

$GPRMC,162239.000,A,3733.0057,N,12216.6799,W,28.02,305.91,150318,,,D*4D

$GPRMC,162246.000,A,3733.0389,N,12216.7258,W,22.41,323.44,150318,,,D*4D

$GPRMC,162253.000,A,3733.0730,N,12216.7408,W,14.50,353.18,150318,,,D*47

$GPRMC,162300.000,A,3733.0854,N,12216.7379,W,1.90,16.18,150318,,,D*46

$GPRMC,162307.000,A,3733.0920,N,12216.7401,W,9.29,301.93,150318,,,D*77

$GPRMC,162314.000,A,3733.1023,N,12216.7780,W,17.55,293.95,150318,,,D*4C

$GPRMC,162321.000,A,3733.1149,N,12216.8024,W,5.18,308.80,150318,,,D*7C

$GPRMC,162328.000,A,3733.1170,N,12216.8057,W,0.31,308.80,150318,,,D*75

$GPRMC,162335.000,A,3733.1208,N,12216.8320,W,14.83,231.23,150318,,,D*48

$GPRMC,162342.000,A,3733.0853,N,12216.8711,W,29.66,219.13,150318,,,D*47

$GPRMC,162349.000,A,3733.0311,N,12216.9243,W,37.20,218.03,150318,,,D*4F

$GPRMC,162356.000,A,3732.9739,N,12216.9816,W,37.44,216.90,150318,,,D*4B

$GPRMC,162403.000,A,3732.9055,N,12217.0195,W,37.36,197.92,150318,,,D*46

$GPRMC,162410.000,A,3732.8437,N,12217.0427,W,22.21,199.72,150318,,,D*4B

$GPRMC,162417.000,A,3732.8246,N,12217.0502,W,4.48,207.34,150318,,,D*77

$GPRMC,162424.000,A,3732.8237,N,12217.0504,W,0.05,206.47,150318,,,D*7F

$GPRMC,162431.000,A,3732.8237,N,12217.0508,W,0.00,206.47,150318,,,D*72

$GPRMC,162438.000,A,3732.8237,N,12217.0508,W,0.00,206.47,150318,,,D*7B

$GPRMC,162445.000,A,3732.8233,N,12217.0509,W,3.95,204.76,150318,,,D*7B

$GPRMC,162452.000,A,3732.8008,N,12217.0739,W,20.55,228.20,150318,,,D*46

$GPRMC,162459.000,A,3732.7722,N,12217.1211,W,27.16,234.66,150318,,,D*4C

$GPRMC,162506.000,A,3732.7401,N,12217.1751,W,27.65,234.47,150318,,,D*43

$GPRMC,162513.000,A,3732.7105,N,12217.2267,W,22.80,236.82,150318,,,D*40

$GPRMC,162520.000,A,3732.6839,N,12217.2754,W,26.17,236.31,150318,,,D*40

$GPRMC,162527.000,A,3732.6533,N,12217.3243,W,26.76,231.72,150318,,,D*45

$GPRMC,162534.000,A,3732.6141,N,12217.3834,W,33.78,225.96,150318,,,D*49

$GPRMC,162541.000,A,3732.5621,N,12217.4335,W,32.03,211.32,150318,,,D*40

$GPRMC,162548.000,A,3732.5058,N,12217.4674,W,31.62,205.25,150318,,,D*46

$GPRMC,162555.000,A,3732.4538,N,12217.5068,W,30.78,222.41,150318,,,D*4F

$GPRMC,162602.000,A,3732.4145,N,12217.5661,W,32.62,231.54,150318,,,D*40

$GPRMC,162609.000,A,3732.3769,N,12217.6252,W,29.43,231.19,150318,,,D*43

$GPRMC,162616.000,A,3732.3427,N,12217.6765,W,25.68,229.25,150318,,,D*46

$GPRMC,162623.000,A,3732.3150,N,12217.7179,W,20.69,231.29,150318,,,D*4E

$GPRMC,162630.000,A,3732.2910,N,12217.7590,W,19.42,235.95,150318,,,D*42

$GPRMC,162637.000,A,3732.2911,N,12217.7916,W,13.15,303.77,150318,,,D*46

$GPRMC,162644.000,A,3732.2964,N,12217.8259,W,13.83,247.13,150318,,,D*43

$GPRMC,162651.000,A,3732.2980,N,12217.8502,W,13.59,311.46,150318,,,D*41

$GPRMC,162658.000,A,3732.3253,N,12217.8683,W,14.34,357.43,150318,,,D*4D

$GPRMC,162705.000,A,3732.3442,N,12217.8602,W,7.04,359.76,150318,,,D*72

$GPRMC,162712.000,A,3732.3531,N,12217.8677,W,5.25,323.87,150318,,,D*71

$GPRMC,162719.000,A,3732.3653,N,12217.8644,W,8.67,24.28,150318,,,D*47

$GPRMC,162726.000,A,3732.3721,N,12217.8672,W,5.33,258.43,150318,,,D*72

$GPRMC,162733.000,A,3732.3606,N,12217.8871,W,8.37,234.48,150318,,,D*77

$GPRMC,162740.000,A,3732.3529,N,12217.8962,W,1.97,199.53,150318,,,D*73

$GPRMC,162747.000,A,3732.3480,N,12217.8927,W,5.51,144.34,150318,,,D*78

$GPRMC,162754.000,A,3732.3394,N,12217.8826,W,3.59,126.01,150318,,,D*74

$GPRMC,162801.000,A,3732.3401,N,12217.8756,W,3.15,42.21,150318,,,D*41

$GPRMC,162808.000,A,3732.3411,N,12217.8748,W,0.00,42.21,150318,,,D*41

$GPRMC,162815.000,A,3732.3412,N,12217.8752,W,0.01,42.21,150318,,,D*44

$GPRMC,162822.000,A,3732.3411,N,12217.8752,W,0.01,42.21,150318,,,D*43

$GPRMC,162829.000,A,3732.3409,N,12217.8754,W,2.40,42.21,150318,,,D*40

$GPRMC,162836.000,A,3732.3357,N,12217.8783,W,2.50,199.25,150318,,,D*7A

$GPRMC,162843.000,A,3732.3313,N,12217.8816,W,2.49,208.32,150318,,,D*7E

$GPRMC,162850.000,A,3732.3278,N,12217.8838,W,1.59,173.02,150318,,,D*72

$GPRMC,162857.000,A,3732.3247,N,12217.8815,W,1.68,142.55,150318,,,D*74

$GPRMC,162904.000,A,3732.3205,N,12217.8784,W,2.74,137.53,150318,,,D*78

$GPRMC,162911.000,A,3732.3163,N,12217.8747,W,2.14,137.81,150318,,,D*79

$GPRMC,162918.000,A,3732.3125,N,12217.8713,W,2.29,144.33,150318,,,D*70

$GPRMC,162925.000,A,3732.3116,N,12217.8722,W,0.56,294.27,150318,,,D*7D

$GPRMC,162932.000,A,3732.3106,N,12217.8714,W,1.51,162.59,150318,,,D*7A

$GPRMC,162939.000,A,3732.3088,N,12217.8694,W,1.62,155.71,150318,,,D*71

$GPRMC,162946.000,A,3732.3071,N,12217.8676,W,1.01,166.66,150318,,,D*70

$GPRMC,162953.000,A,3732.3064,N,12217.8670,W,0.11,177.74,150318,,,D*75

$GPRMC,163001.000,A,3732.3066,N,12217.8671,W,0.39,177.74,150318,,,D*73

$GPRMC,163008.000,A,3732.3065,N,12217.8670,W,0.09,177.74,150318,,,D*7B

$GPRMC,163015.000,A,3732.3065,N,12217.8668,W,0.13,177.74,150318,,,D*75

$GPRMC,163022.000,A,3732.3066,N,12217.8665,W,0.14,177.74,150318,,,D*78

$GPRMC,163029.000,A,3732.3065,N,12217.8667,W,0.06,177.74,150318,,,D*71

$GPRMC,163036.000,A,3732.3066,N,12217.8666,W,0.07,177.74,150318,,,D*7C

$GPRMC,163043.000,A,3732.3066,N,12217.8665,W,0.21,177.74,150318,,,D*79

$GPRMC,163050.000,A,3732.3068,N,12217.8664,W,0.04,177.74,150318,,,D*73

$GPRMC,163057.000,A,3732.3067,N,12217.8664,W,0.06,177.74,150318,,,D*79

$GPRMC,163104.000,A,3732.3066,N,12217.8663,W,0.05,177.74,150318,,,D*7B

$GPRMC,163111.000,A,3732.3067,N,12217.8662,W,0.05,177.74,150318,,,D*7F

$GPRMC,163118.000,A,3732.3066,N,12217.8661,W,0.03,177.74,150318,,,D*72

$GPRMC,163125.000,A,3732.3066,N,12217.8660,W,0.06,177.74,150318,,,D*78

$GPRMC,163132.000,A,3732.3066,N,12217.8660,W,0.07,177.74,150318,,,D*7F

$GPRMC,163139.000,A,3732.3066,N,12217.8658,W,0.06,177.74,150318,,,D*7E

$GPRMC,163146.000,A,3732.3066,N,12217.8657,W,0.04,177.74,150318,,,D*7B

$GPRMC,163153.000,A,3732.3066,N,12217.8657,W,0.02,177.74,150318,,,D*79

$GPRMC,163200.000,A,3732.3066,N,12217.8658,W,0.04,177.74,150318,,,D*75

$GPRMC,163207.000,A,3732.3065,N,12217.8657,W,0.07,177.74,150318,,,D*7D

$GPRMC,163214.000,A,3732.3065,N,12217.8656,W,0.03,177.74,150318,,,D*7A

$GPRMC,163221.000,A,3732.3065,N,12217.8656,W,0.04,177.74,150318,,,D*7B

$GPRMC,163228.000,A,3732.3065,N,12217.8656,W,0.03,177.74,150318,,,D*75

$GPRMC,163235.000,A,3732.3064,N,12217.8655,W,0.06,177.74,150318,,,D*7E

$GPRMC,163242.000,A,3732.3063,N,12217.8654,W,0.03,177.74,150318,,,D*7D

$GPRMC,163249.000,A,3732.3063,N,12217.8653,W,0.02,177.74,150318,,,D*70

$GPRMC,163256.000,A,3732.3062,N,12217.8653,W,0.11,177.74,150318,,,D*7D

$GPRMC,163303.000,A,3732.3062,N,12217.8652,W,0.06,177.74,150318,,,D*7B

$GPRMC,163310.000,A,3732.3062,N,12217.8652,W,0.04,177.74,150318,,,D*7B

$GPRMC,163317.000,A,3732.3061,N,12217.8651,W,0.03,177.74,150318,,,D*7B

$GPRMC,163324.000,A,3732.3061,N,12217.8650,W,0.06,177.74,150318,,,D*7F

$GPRMC,163331.000,A,3732.3061,N,12217.8650,W,0.03,177.74,150318,,,D*7E

$GPRMC,163338.000,A,3732.3061,N,12217.8649,W,0.14,177.74,150318,,,D*79

$GPRMC,163345.000,A,3732.3060,N,12217.8649,W,0.01,177.74,150318,,,D*76

$GPRMC,163352.000,A,3732.3059,N,12217.8648,W,0.06,177.74,150318,,,D*7C

$GPRMC,163359.000,A,3732.3059,N,12217.8647,W,0.01,177.74,150318,,,D*7F

$GPRMC,163406.000,A,3732.3059,N,12217.8647,W,0.05,177.74,150318,,,D*76

$GPRMC,163413.000,A,3732.3060,N,12217.8647,W,0.42,177.74,150318,,,D*7B

$GPRMC,163420.000,A,3732.3061,N,12217.8645,W,0.45,177.74,150318,,,D*7F

$GPRMC,163427.000,A,3732.3062,N,12217.8647,W,0.03,177.74,150318,,,D*7B

$GPRMC,163434.000,A,3732.3061,N,12217.8646,W,0.11,177.74,150318,,,D*78

$GPRMC,163441.000,A,3732.3060,N,12217.8646,W,0.06,177.74,150318,,,D*7D

$GPRMC,163448.000,A,3732.3059,N,12217.8644,W,0.00,133.32,150318,,,D*78

$GPRMC,163455.000,A,3732.3061,N,12217.8645,W,0.41,256.94,150318,,,D*77

$GPRMC,163502.000,A,3732.3056,N,12217.8660,W,0.08,266.17,150318,,,D*72

$GPRMC,163509.000,A,3732.3059,N,12217.8657,W,0.71,110.28,150318,,,D*72

$GPRMC,163516.000,A,3732.3065,N,12217.8651,W,0.85,289.44,150318,,,D*77

$GPRMC,163523.000,A,3732.3070,N,12217.8650,W,0.79,106.75,150318,,,D*71

$GPRMC,163530.000,A,3732.3095,N,12217.8630,W,0.96,270.29,150318,,,D*74

$GPRMC,163537.000,A,3732.3090,N,12217.8650,W,0.09,270.29,150318,,,D*76

$GPRMC,163544.000,A,3732.3091,N,12217.8663,W,2.20,87.21,150318,,,D*48

$GPRMC,163551.000,A,3732.3090,N,12217.8660,W,1.50,265.43,150318,,,D*70

$GPRMC,163558.000,A,3732.3094,N,12217.8644,W,1.71,268.92,150318,,,D*79

$GPRMC,163605.000,A,3732.3089,N,12217.8660,W,1.63,241.62,150318,,,D*7F

$GPRMC,163612.000,A,3732.3082,N,12217.8679,W,4.82,42.02,150318,,,D*47

$GPRMC,163619.000,A,3732.3094,N,12217.8677,W,3.03,58.86,150318,,,D*4C

$GPRMC,163626.000,A,3732.3090,N,12217.8663,W,0.47,55.93,150318,,,D*4B

$GPRMC,163633.000,A,3732.3120,N,12217.8636,W,0.48,350.25,150318,,,D*71

$GPRMC,163640.000,A,3732.3091,N,12217.8673,W,0.11,350.25,150318,,,D*73

$GPRMC,163647.000,A,3732.3085,N,12217.8672,W,0.09,350.25,150318,,,D*79

$GPRMC,163654.000,A,3732.3084,N,12217.8672,W,0.17,350.25,150318,,,D*75

$GPRMC,163701.000,A,3732.3084,N,12217.8669,W,0.04,350.25,150318,,,D*7C

$GPRMC,163708.000,A,3732.3084,N,12217.8672,W,0.03,350.25,150318,,,D*78

$GPRMC,163715.000,A,3732.3084,N,12217.8672,W,0.01,350.25,150318,,,D*76

$GPRMC,163722.000,A,3732.3084,N,12217.8672,W,0.01,350.25,150318,,,D*72

$GPRMC,163729.000,A,3732.3084,N,12217.8672,W,0.00,350.25,150318,,,D*78

$GPRMC,163736.000,A,3732.3084,N,12217.8672,W,0.01,350.25,150318,,,D*77

$GPRMC,163743.000,A,3732.3084,N,12217.8672,W,0.01,350.25,150318,,,D*75

$GPRMC,163750.000,A,3732.3084,N,12217.8672,W,0.03,350.25,150318,,,D*75

$GPRMC,163757.000,A,3732.3084,N,12217.8672,W,0.01,350.25,150318,,,D*70

$GPRMC,163804.000,A,3732.3084,N,12217.8673,W,0.26,350.25,150318,,,D*7D

$GPRMC,163811.000,A,3732.3083,N,12217.8674,W,0.00,350.25,150318,,,D*7D

$GPRMC,163818.000,A,3732.3083,N,12217.8674,W,0.40,350.25,150318,,,D*70

$GPRMC,163825.000,A,3732.3085,N,12217.8673,W,0.01,350.25,150318,,,D*7A

$GPRMC,163832.000,A,3732.3084,N,12217.8673,W,0.31,350.25,150318,,,D*7E

$GPRMC,163839.000,A,3732.3085,N,12217.8672,W,0.03,350.25,150318,,,D*74

$GPRMC,163846.000,A,3732.3085,N,12217.8672,W,0.00,350.25,150318,,,D*7F

$GPRMC,163853.000,A,3732.3084,N,12217.8672,W,0.13,350.25,150318,,,D*78

$GPRMC,163900.000,A,3732.3078,N,12217.8678,W,0.58,231.43,150318,,,D*7F

$GPRMC,163907.000,A,3732.3078,N,12217.8681,W,0.05,240.56,150318,,,D*74

$GPRMC,163914.000,A,3732.3078,N,12217.8681,W,0.11,240.56,150318,,,D*73

$GPRMC,163921.000,A,3732.3078,N,12217.8681,W,0.05,240.56,150318,,,D*70

$GPRMC,163928.000,A,3732.3078,N,12217.8681,W,0.01,240.56,150318,,,D*7D

$GPRMC,163935.000,A,3732.3078,N,12217.8681,W,0.03,240.56,150318,,,D*73

$GPRMC,163942.000,A,3732.3077,N,12217.8681,W,0.03,240.56,150318,,,D*7C

$GPRMC,163949.000,A,3732.3077,N,12217.8681,W,0.04,240.56,150318,,,D*70

$GPRMC,163956.000,A,3732.3077,N,12217.8681,W,0.01,240.56,150318,,,D*7B

$GPRMC,164003.000,A,3732.3077,N,12217.8681,W,0.03,240.56,150318,,,D*77

$GPRMC,164010.000,A,3732.3077,N,12217.8681,W,0.24,240.56,150318,,,D*70

$GPRMC,164017.000,A,3732.3077,N,12217.8681,W,0.10,240.56,150318,,,D*70

$GPRMC,164024.000,A,3732.3077,N,12217.8681,W,0.03,240.56,150318,,,D*72

$GPRMC,164031.000,A,3732.3077,N,12217.8681,W,0.04,240.56,150318,,,D*71

$GPRMC,164038.000,A,3732.3077,N,12217.8681,W,0.11,240.56,150318,,,D*7C

$GPRMC,164045.000,A,3732.3077,N,12217.8681,W,0.03,240.56,150318,,,D*75

$GPRMC,164052.000,A,3732.3077,N,12217.8681,W,0.02,240.56,150318,,,D*72

$GPRMC,164059.000,A,3732.3077,N,12217.8681,W,0.07,240.56,150318,,,D*7C

$GPRMC,164106.000,A,3732.3077,N,12217.8680,W,0.09,240.56,150318,,,D*78

$GPRMC,164113.000,A,3732.3077,N,12217.8680,W,0.20,240.56,150318,,,D*77

$GPRMC,164120.000,A,3732.3077,N,12217.8680,W,0.06,240.56,150318,,,D*73

$GPRMC,164127.000,A,3732.3077,N,12217.8680,W,0.06,240.56,150318,,,D*74

$GPRMC,164134.000,A,3732.3077,N,12217.8680,W,0.09,240.56,150318,,,D*79

$GPRMC,164141.000,A,3732.3076,N,12217.8680,W,0.01,240.56,150318,,,D*72

$GPRMC,164148.000,A,3732.3076,N,12217.8680,W,0.05,240.56,150318,,,D*7F

$GPRMC,164155.000,A,3732.3076,N,12217.8680,W,0.00,240.56,150318,,,D*76

$GPRMC,164202.000,A,3732.3076,N,12217.8680,W,0.03,240.56,150318,,,D*74

$GPRMC,164209.000,A,3732.3076,N,12217.8679,W,0.07,240.56,150318,,,D*7D

$GPRMC,164216.000,A,3732.3076,N,12217.8679,W,0.06,240.56,150318,,,D*72

$GPRMC,164223.000,A,3732.3076,N,12217.8679,W,1.25,141.11,150318,,,D*75

$GPRMC,164230.000,A,3732.3066,N,12217.8679,W,1.22,267.38,150318,,,D*7D

$GPRMC,164237.000,A,3732.3070,N,12217.8702,W,0.75,289.75,150318,,,D*7A

$GPRMC,164244.000,A,3732.3069,N,12217.8710,W,0.31,284.86,150318,,,D*74

$GPRMC,164251.000,A,3732.3069,N,12217.8714,W,0.11,284.86,150318,,,D*76

$GPRMC,164258.000,A,3732.3069,N,12217.8719,W,0.32,284.86,150318,,,D*73

$GPRMC,164305.000,A,3732.3065,N,12217.8725,W,0.23,284.86,150318,,,D*79

$GPRMC,164312.000,A,3732.3071,N,12217.8713,W,1.00,317.44,150318,,,D*7A

$GPRMC,164319.000,A,3732.3131,N,12217.8740,W,5.57,326.76,150318,,,D*77

$GPRMC,164326.000,A,3732.3252,N,12217.8862,W,9.44,320.45,150318,,,D*7A

$GPRMC,164333.000,A,3732.3431,N,12217.9037,W,13.65,323.22,150318,,,D*4E

$GPRMC,164340.000,A,3732.3693,N,12217.9272,W,18.35,323.96,150318,,,D*42

$GPRMC,164347.000,A,3732.4025,N,12217.9572,W,21.96,322.93,150318,,,D*49

$GPRMC,164354.000,A,3732.4428,N,12217.9936,W,26.88,325.30,150318,,,D*48

$GPRMC,164401.000,A,3732.4935,N,12218.0365,W,30.71,326.32,150318,,,D*44

$GPRMC,164409.000,A,3732.5565,N,12218.0895,W,34.07,326.52,150318,,,D*43

$GPRMC,164416.000,A,3732.6159,N,12218.1376,W,36.66,325.40,150318,,,D*47

$GPRMC,164423.000,A,3732.6807,N,12218.1918,W,40.11,325.41,150318,,,D*41

$GPRMC,164430.000,A,3732.7498,N,12218.2491,W,42.05,325.91,150318,,,D*4D

$GPRMC,164437.000,A,3732.8217,N,12218.3093,W,44.87,326.24,150318,,,D*42

$GPRMC,164444.000,A,3732.8951,N,12218.3710,W,46.03,326.14,150318,,,D*4E

$GPRMC,164451.000,A,3732.9702,N,12218.4356,W,47.08,327.20,150318,,,D*4E

$GPRMC,164458.000,A,3733.0519,N,12218.4963,W,48.89,333.12,150318,,,D*49

$GPRMC,164505.000,A,3733.1407,N,12218.5444,W,49.27,338.42,150318,,,D*4D

$GPRMC,164512.000,A,3733.2348,N,12218.5887,W,52.14,340.10,150318,,,D*45

$GPRMC,164519.000,A,3733.3309,N,12218.6353,W,53.75,336.25,150318,,,D*4A

$GPRMC,164526.000,A,3733.4241,N,12218.6991,W,54.98,326.30,150318,,,D*49

$GPRMC,164533.000,A,3733.5077,N,12218.7820,W,55.18,319.15,150318,,,D*43

$GPRMC,164540.000,A,3733.5858,N,12218.8703,W,53.01,319.07,150318,,,D*4E

$GPRMC,164547.000,A,3733.6593,N,12218.9519,W,47.65,318.02,150318,,,D*4B

$GPRMC,164554.000,A,3733.7234,N,12219.0251,W,41.79,318.34,150318,,,D*4F

$GPRMC,164601.000,A,3733.7806,N,12219.0881,W,36.86,319.59,150318,,,D*4A

$GPRMC,164608.000,A,3733.8326,N,12219.1446,W,33.96,318.99,150318,,,D*4A

$GPRMC,164615.000,A,3733.8781,N,12219.1941,W,28.74,319.62,150318,,,D*46

$GPRMC,164622.000,A,3733.9160,N,12219.2349,W,23.90,320.92,150318,,,D*4F

$GPRMC,164629.000,A,3733.9495,N,12219.2721,W,22.75,321.56,150318,,,D*42

$GPRMC,164636.000,A,3733.9794,N,12219.3047,W,19.28,318.45,150318,,,D*40

$GPRMC,164643.000,A,3734.0077,N,12219.3343,W,18.86,320.70,150318,,,D*49

$GPRMC,164650.000,A,3734.0351,N,12219.3632,W,17.18,322.10,150318,,,D*43

$GPRMC,164657.000,A,3734.0537,N,12219.3858,W,10.88,324.74,150318,,,D*4A

$GPRMC,164704.000,A,3734.0687,N,12219.4034,W,9.27,323.48,150318,,,D*75

$GPRMC,164711.000,A,3734.0817,N,12219.4182,W,7.61,317.76,150318,,,D*7C

$GPRMC,164718.000,A,3734.0904,N,12219.4290,W,6.15,313.85,150318,,,D*7C

$GPRMC,164725.000,A,3734.1002,N,12219.4409,W,5.22,329.25,150318,,,D*7E

$GPRMC,164732.000,A,3734.1067,N,12219.4472,W,2.78,325.87,150318,,,D*7B

$GPRMC,164739.000,A,3734.1074,N,12219.4467,W,0.46,325.87,150318,,,D*79

$GPRMC,164746.000,A,3734.1074,N,12219.4458,W,0.02,325.87,150318,,,D*7D

$GPRMC,164753.000,A,3734.1073,N,12219.4453,W,0.03,325.87,150318,,,D*74

$GPRMC,164800.000,A,3734.1073,N,12219.4447,W,0.03,325.87,150318,,,D*78

$GPRMC,164807.000,A,3734.1072,N,12219.4445,W,0.00,325.87,150318,,,D*7F

$GPRMC,164814.000,A,3734.1073,N,12219.4447,W,0.13,325.87,150318,,,D*7C

$GPRMC,164821.000,A,3734.1070,N,12219.4448,W,0.24,325.87,150318,,,D*72

$GPRMC,164828.000,A,3734.1070,N,12219.4445,W,0.27,325.87,150318,,,D*75

$GPRMC,164835.000,A,3734.1074,N,12219.4441,W,0.00,325.87,150318,,,D*7C

$GPRMC,164842.000,A,3734.1079,N,12219.4446,W,1.87,325.87,150318,,,D*78

$GPRMC,164849.000,A,3734.1190,N,12219.4547,W,6.71,318.57,150318,,,D*78

$GPRMC,164856.000,A,3734.1335,N,12219.4729,W,10.81,322.35,150318,,,D*44

$GPRMC,164903.000,A,3734.1550,N,12219.4955,W,14.90,321.08,150318,,,D*4C

$GPRMC,164910.000,A,3734.1817,N,12219.5256,W,18.14,322.07,150318,,,D*45

$GPRMC,164917.000,A,3734.2111,N,12219.5585,W,21.19,320.64,150318,,,D*47

$GPRMC,164924.000,A,3734.2453,N,12219.5952,W,23.84,320.07,150318,,,D*41

$GPRMC,164931.000,A,3734.2851,N,12219.6379,W,26.50,320.22,150318,,,D*40

$GPRMC,164938.000,A,3734.3275,N,12219.6866,W,29.51,317.15,150318,,,D*4F

$GPRMC,164945.000,A,3734.3706,N,12219.7413,W,31.56,313.81,150318,,,D*4C

$GPRMC,164952.000,A,3734.4145,N,12219.8038,W,35.25,309.70,150318,,,D*4B

$GPRMC,164959.000,A,3734.4579,N,12219.8762,W,38.22,305.88,150318,,,D*42

$GPRMC,165006.000,A,3734.4983,N,12219.9567,W,40.05,300.72,150318,,,D*45

$GPRMC,165013.000,A,3734.5376,N,12220.0450,W,42.00,298.67,150318,,,D*45

$GPRMC,165020.000,A,3734.5779,N,12220.1377,W,43.81,298.34,150318,,,D*43

$GPRMC,165027.000,A,3734.6167,N,12220.2326,W,42.93,297.61,150318,,,D*44

$GPRMC,165034.000,A,3734.6544,N,12220.3246,W,39.92,297.43,150318,,,D*48

$GPRMC,165041.000,A,3734.6886,N,12220.4054,W,34.86,297.32,150318,,,D*41

$GPRMC,165048.000,A,3734.7171,N,12220.4734,W,29.06,298.36,150318,,,D*46

$GPRMC,165055.000,A,3734.7419,N,12220.5291,W,23.94,298.68,150318,,,D*40

$GPRMC,165102.000,A,3734.7603,N,12220.5730,W,18.21,297.71,150318,,,D*45

$GPRMC,165109.000,A,3734.7741,N,12220.6028,W,11.94,303.64,150318,,,D*4B

$GPRMC,165116.000,A,3734.7823,N,12220.6231,W,8.55,298.21,150318,,,D*73

$GPRMC,165123.000,A,3734.7883,N,12220.6391,W,5.67,301.28,150318,,,D*70

$GPRMC,165130.000,A,3734.7882,N,12220.6422,W,0.02,301.64,150318,,,D*72

$GPRMC,165137.000,A,3734.7883,N,12220.6422,W,0.00,301.64,150318,,,D*76

$GPRMC,165144.000,A,3734.7882,N,12220.6422,W,0.03,301.64,150318,,,D*70

$GPRMC,165151.000,A,3734.7880,N,12220.6422,W,0.00,301.64,150318,,,D*75

$GPRMC,165159.000,A,3734.7878,N,12220.6418,W,0.38,301.64,150318,,,D*78

$GPRMC,165206.000,A,3734.7876,N,12220.6418,W,0.00,301.64,150318,,,D*74

$GPRMC,165213.000,A,3734.7876,N,12220.6453,W,2.87,281.06,150318,,,D*7F

$GPRMC,165220.000,A,3734.7940,N,12220.6599,W,8.14,298.78,150318,,,D*7D

$GPRMC,165227.000,A,3734.8046,N,12220.6860,W,12.34,296.08,150318,,,D*41

$GPRMC,165234.000,A,3734.8190,N,12220.7210,W,16.54,298.34,150318,,,D*46

$GPRMC,165241.000,A,3734.8373,N,12220.7649,W,20.26,296.79,150318,,,D*44

$GPRMC,165248.000,A,3734.8590,N,12220.8166,W,23.41,295.33,150318,,,D*4C

$GPRMC,165255.000,A,3734.8839,N,12220.8748,W,26.39,295.15,150318,,,D*4A

$GPRMC,165302.000,A,3734.9131,N,12220.9423,W,31.18,297.61,150318,,,D*42

$GPRMC,165309.000,A,3734.9440,N,12221.0158,W,33.85,297.40,150318,,,D*4E

$GPRMC,165316.000,A,3734.9804,N,12221.0963,W,37.54,298.83,150318,,,D*44

$GPRMC,165323.000,A,3735.0181,N,12221.1834,W,39.71,298.20,150318,,,D*4C

$GPRMC,165330.000,A,3735.0579,N,12221.2769,W,42.86,298.07,150318,,,D*48

$GPRMC,165337.000,A,3735.0973,N,12221.3755,W,44.48,297.63,150318,,,D*4E

$GPRMC,165344.000,A,3735.1402,N,12221.4768,W,46.63,297.81,150318,,,D*4E

$GPRMC,165351.000,A,3735.1824,N,12221.5804,W,47.51,297.85,150318,,,D*42

$GPRMC,165358.000,A,3735.2265,N,12221.6867,W,49.66,297.93,150318,,,D*4C

$GPRMC,165405.000,A,3735.2725,N,12221.7971,W,50.61,297.23,150318,,,D*41

$GPRMC,165412.000,A,3735.3186,N,12221.9095,W,51.87,296.73,150318,,,D*49

$GPRMC,165419.000,A,3735.3658,N,12222.0240,W,53.39,297.97,150318,,,D*4A

$GPRMC,165426.000,A,3735.4156,N,12222.1406,W,54.29,297.57,150318,,,D*47

$GPRMC,165433.000,A,3735.4657,N,12222.2605,W,55.70,297.17,150318,,,D*4E

$GPRMC,165440.000,A,3735.5179,N,12222.3832,W,56.58,298.18,150318,,,D*42

$GPRMC,165447.000,A,3735.5690,N,12222.5036,W,54.81,297.62,150318,,,D*4B

$GPRMC,165454.000,A,3735.6157,N,12222.6183,W,50.39,297.12,150318,,,D*4A

$GPRMC,165501.000,A,3735.6593,N,12222.7227,W,44.97,297.57,150318,,,D*4B

$GPRMC,165508.000,A,3735.6986,N,12222.8139,W,39.66,297.76,150318,,,D*4E

$GPRMC,165515.000,A,3735.7343,N,12222.8926,W,34.52,301.44,150318,,,D*43

$GPRMC,165522.000,A,3735.7665,N,12222.9527,W,27.46,306.25,150318,,,D*4D

$GPRMC,165529.000,A,3735.7986,N,12223.0007,W,26.62,312.29,150318,,,D*45

$GPRMC,165536.000,A,3735.8347,N,12223.0439,W,25.72,317.16,150318,,,D*41

$GPRMC,165543.000,A,3735.8725,N,12223.0841,W,24.01,321.67,150318,,,D*46

$GPRMC,165550.000,A,3735.9075,N,12223.1183,W,21.03,322.78,150318,,,D*4B

$GPRMC,165557.000,A,3735.9394,N,12223.1491,W,19.87,322.33,150318,,,D*4E

$GPRMC,165604.000,A,3735.9661,N,12223.1762,W,15.91,321.97,150318,,,D*4D

$GPRMC,165611.000,A,3735.9855,N,12223.1932,W,11.06,320.31,150318,,,D*4C

$GPRMC,165618.000,A,3735.9998,N,12223.2103,W,7.31,310.25,150318,,,D*79

$GPRMC,165625.000,A,3736.0032,N,12223.2147,W,0.07,312.35,150318,,,D*75

$GPRMC,165632.000,A,3736.0029,N,12223.2162,W,0.08,312.35,150318,,,D*71

$GPRMC,165639.000,A,3736.0031,N,12223.2176,W,0.00,312.35,150318,,,D*7E

$GPRMC,165646.000,A,3736.0032,N,12223.2175,W,0.00,312.35,150318,,,D*76

$GPRMC,165653.000,A,3736.0030,N,12223.2182,W,0.04,312.35,150318,,,D*7C

$GPRMC,165701.000,A,3736.0026,N,12223.2185,W,0.03,312.35,150318,,,D*7D

$GPRMC,165708.000,A,3736.0028,N,12223.2193,W,0.07,312.35,150318,,,D*79

$GPRMC,165715.000,A,3736.0047,N,12223.2225,W,3.00,316.87,150318,,,D*7B

$GPRMC,165722.000,A,3736.0097,N,12223.2324,W,6.01,322.75,150318,,,D*7C

$GPRMC,165729.000,A,3736.0239,N,12223.2433,W,9.07,321.02,150318,,,D*7A

$GPRMC,165736.000,A,3736.0439,N,12223.2569,W,13.79,321.39,150318,,,D*46

$GPRMC,165743.000,A,3736.0687,N,12223.2795,W,16.57,322.04,150318,,,D*46

$GPRMC,165750.000,A,3736.0959,N,12223.3075,W,17.97,321.04,150318,,,D*4E

$GPRMC,165757.000,A,3736.1261,N,12223.3384,W,20.42,320.28,150318,,,D*46

$GPRMC,165804.000,A,3736.1598,N,12223.3724,W,22.90,321.25,150318,,,D*41

$GPRMC,165811.000,A,3736.1967,N,12223.4099,W,25.24,321.29,150318,,,D*4B

$GPRMC,165818.000,A,3736.2376,N,12223.4499,W,27.22,321.41,150318,,,D*45

$GPRMC,165825.000,A,3736.2809,N,12223.4938,W,29.77,321.05,150318,,,D*40

$GPRMC,165832.000,A,3736.3265,N,12223.5418,W,31.71,319.98,150318,,,D*49

$GPRMC,165839.000,A,3736.3765,N,12223.5937,W,34.13,320.73,150318,,,D*49

$GPRMC,165846.000,A,3736.4305,N,12223.6488,W,37.11,321.34,150318,,,D*4D

$GPRMC,165853.000,A,3736.4892,N,12223.7080,W,39.36,320.99,150318,,,D*4C

$GPRMC,165900.000,A,3736.5529,N,12223.7724,W,42.85,321.66,150318,,,D*4B

$GPRMC,165907.000,A,3736.6206,N,12223.8413,W,45.04,320.80,150318,,,D*4A

$GPRMC,165914.000,A,3736.6915,N,12223.9136,W,46.34,322.13,150318,,,D*4A

$GPRMC,165921.000,A,3736.7680,N,12223.9808,W,48.71,327.18,150318,,,D*4B

$GPRMC,165928.000,A,3736.8502,N,12224.0439,W,49.31,328.72,150318,,,D*42

$GPRMC,165935.000,A,3736.9353,N,12224.1079,W,51.09,329.01,150318,,,D*4B

$GPRMC,165942.000,A,3737.0220,N,12224.1730,W,51.69,329.07,150318,,,D*4C

$GPRMC,165949.000,A,3737.1049,N,12224.2386,W,49.24,328.27,150318,,,D*42

$GPRMC,165956.000,A,3737.1832,N,12224.2967,W,44.23,328.87,150318,,,D*4D

$GPRMC,170003.000,A,3737.2521,N,12224.3478,W,39.89,328.99,150318,,,D*4B

$GPRMC,170010.000,A,3737.3187,N,12224.3956,W,38.60,329.63,150318,,,D*43

$GPRMC,170017.000,A,3737.3808,N,12224.4368,W,35.24,332.86,150318,,,D*46

$GPRMC,170024.000,A,3737.4350,N,12224.4694,W,30.20,333.33,150318,,,D*4F

$GPRMC,170031.000,A,3737.4833,N,12224.4973,W,26.09,335.91,150318,,,D*41

$GPRMC,170038.000,A,3737.5273,N,12224.5227,W,24.53,334.85,150318,,,D*45

$GPRMC,170045.000,A,3737.5685,N,12224.5466,W,22.88,335.43,150318,,,D*4A

$GPRMC,170052.000,A,3737.6073,N,12224.5688,W,20.90,336.89,150318,,,D*4C

$GPRMC,170059.000,A,3737.6438,N,12224.5883,W,20.29,336.07,150318,,,D*4D

$GPRMC,170106.000,A,3737.6748,N,12224.6051,W,15.84,336.72,150318,,,D*45

$GPRMC,170113.000,A,3737.6993,N,12224.6188,W,13.03,334.37,150318,,,D*46

$GPRMC,170120.000,A,3737.7204,N,12224.6314,W,12.60,336.81,150318,,,D*4E

$GPRMC,170127.000,A,3737.7417,N,12224.6447,W,11.65,335.94,150318,,,D*4D

$GPRMC,170134.000,A,3737.7624,N,12224.6573,W,11.19,334.85,150318,,,D*41

$GPRMC,170141.000,A,3737.7803,N,12224.6681,W,8.73,335.16,150318,,,D*79

$GPRMC,170148.000,A,3737.7921,N,12224.6748,W,6.17,333.66,150318,,,D*78

$GPRMC,170155.000,A,3737.8021,N,12224.6793,W,4.66,336.26,150318,,,D*71

$GPRMC,170202.000,A,3737.8091,N,12224.6827,W,0.10,335.51,150318,,,D*7D

$GPRMC,170209.000,A,3737.8095,N,12224.6822,W,0.00,335.51,150318,,,D*76

$GPRMC,170216.000,A,3737.8095,N,12224.6822,W,0.02,335.51,150318,,,D*7A

$GPRMC,170223.000,A,3737.8098,N,12224.6825,W,0.03,335.51,150318,,,D*77

$GPRMC,170230.000,A,3737.8104,N,12224.6827,W,0.09,335.51,150318,,,D*79

$GPRMC,170237.000,A,3737.8106,N,12224.6826,W,0.00,335.51,150318,,,D*74

$GPRMC,170244.000,A,3737.8107,N,12224.6827,W,0.00,335.51,150318,,,D*70

$GPRMC,170251.000,A,3737.8110,N,12224.6828,W,1.33,335.51,150318,,,D*7C

$GPRMC,170258.000,A,3737.8178,N,12224.6866,W,5.41,339.84,150318,,,D*74

$GPRMC,170305.000,A,3737.8317,N,12224.6954,W,9.02,335.67,150318,,,D*7C

$GPRMC,170312.000,A,3737.8518,N,12224.7055,W,12.55,335.75,150318,,,D*41

$GPRMC,170319.000,A,3737.8791,N,12224.7219,W,16.73,336.21,150318,,,D*41

$GPRMC,170326.000,A,3737.9142,N,12224.7405,W,20.94,338.16,150318,,,D*49

$GPRMC,170333.000,A,3737.9578,N,12224.7600,W,24.97,344.02,150318,,,D*4E

$GPRMC,170340.000,A,3738.0107,N,12224.7745,W,29.37,351.81,150318,,,D*48

$GPRMC,170348.000,A,3738.0815,N,12224.7806,W,32.02,358.95,150318,,,D*42

$GPRMC,170355.000,A,3738.1515,N,12224.7822,W,36.98,359.28,150318,,,D*44

$GPRMC,170402.000,A,3738.2267,N,12224.7831,W,39.67,359.78,150318,,,D*48

$GPRMC,170409.000,A,3738.3066,N,12224.7842,W,42.04,359.61,150318,,,D*44

$GPRMC,170416.000,A,3738.3914,N,12224.7851,W,44.11,359.56,150318,,,D*42

$GPRMC,170423.000,A,3738.4804,N,12224.7857,W,46.69,359.41,150318,,,D*4E

$GPRMC,170430.000,A,3738.5732,N,12224.7833,W,48.82,3.54,150318,,,D*46

$GPRMC,170437.000,A,3738.6683,N,12224.7694,W,49.84,9.39,150318,,,D*4C

$GPRMC,170444.000,A,3738.7656,N,12224.7418,W,51.93,16.01,150318,,,D*7D

$GPRMC,170451.000,A,3738.8620,N,12224.6989,W,52.86,22.90,150318,,,D*7B

$GPRMC,170458.000,A,3738.9559,N,12224.6414,W,53.82,29.33,150318,,,D*70

$GPRMC,170505.000,A,3739.0453,N,12224.5712,W,54.21,32.59,150318,,,D*74

$GPRMC,170512.000,A,3739.1359,N,12224.4975,W,55.32,32.86,150318,,,D*71

$GPRMC,170519.000,A,3739.2269,N,12224.4209,W,55.79,35.01,150318,,,D*7C

$GPRMC,170526.000,A,3739.3156,N,12224.3361,W,58.09,38.00,150318,,,D*70

$GPRMC,170533.000,A,3739.4065,N,12224.2479,W,59.51,37.15,150318,,,D*7A

$GPRMC,170540.000,A,3739.4977,N,12224.1589,W,60.11,37.63,150318,,,D*76

$GPRMC,170547.000,A,3739.5921,N,12224.0684,W,61.58,37.37,150318,,,D*71

$GPRMC,170554.000,A,3739.6873,N,12223.9764,W,62.14,37.32,150318,,,D*79

$GPRMC,170601.000,A,3739.7846,N,12223.8834,W,63.20,36.36,150318,,,D*75

$GPRMC,170608.000,A,3739.8813,N,12223.7898,W,62.38,37.35,150318,,,D*70

$GPRMC,170615.000,A,3739.9750,N,12223.6981,W,59.95,37.52,150318,,,D*73

$GPRMC,170622.000,A,3740.0659,N,12223.6082,W,59.46,37.53,150318,,,D*7D

$GPRMC,170629.000,A,3740.1554,N,12223.5203,W,58.87,37.47,150318,,,D*78

$GPRMC,170636.000,A,3740.2479,N,12223.4375,W,58.47,29.86,150318,,,D*74

$GPRMC,170644.000,A,3740.3714,N,12223.3775,W,58.22,14.33,150318,,,D*78

$GPRMC,170652.000,A,3740.4993,N,12223.3632,W,57.13,359.07,150318,,,D*4B

$GPRMC,170659.000,A,3740.6071,N,12223.3993,W,56.87,340.96,150318,,,D*4F

$GPRMC,170706.000,A,3740.7025,N,12223.4645,W,55.56,327.23,150318,,,D*47

$GPRMC,170713.000,A,3740.7926,N,12223.5433,W,56.19,325.77,150318,,,D*40

$GPRMC,170720.000,A,3740.8848,N,12223.6236,W,56.77,325.16,150318,,,D*49

$GPRMC,170727.000,A,3740.9777,N,12223.7054,W,58.23,325.55,150318,,,D*43

$GPRMC,170734.000,A,3741.0734,N,12223.7878,W,59.25,325.99,150318,,,D*4F

$GPRMC,170741.000,A,3741.1708,N,12223.8699,W,59.87,326.41,150318,,,D*43

$GPRMC,170748.000,A,3741.2704,N,12223.9504,W,60.60,329.56,150318,,,D*49

$GPRMC,170755.000,A,3741.3779,N,12224.0170,W,61.53,336.99,150318,,,D*4B

$GPRMC,170802.000,A,3741.4928,N,12224.0663,W,62.82,344.37,150318,,,D*40

$GPRMC,170809.000,A,3741.6136,N,12224.0984,W,63.72,351.49,150318,,,D*4B

$GPRMC,170816.000,A,3741.7373,N,12224.1102,W,64.13,358.61,150318,,,D*43

$GPRMC,170823.000,A,3741.8627,N,12224.1101,W,64.53,359.97,150318,,,D*41

$GPRMC,170830.000,A,3741.9857,N,12224.1099,W,61.80,0.33,150318,,,D*41

$GPRMC,170837.000,A,3742.1018,N,12224.1097,W,58.92,0.15,150318,,,D*4D

$GPRMC,170844.000,A,3742.2116,N,12224.1088,W,57.14,0.42,150318,,,D*48

$GPRMC,170851.000,A,3742.3191,N,12224.1086,W,56.13,0.15,150318,,,D*48

$GPRMC,170858.000,A,3742.4256,N,12224.1085,W,54.53,0.65,150318,,,D*4C

$GPRMC,170905.000,A,3742.5313,N,12224.1087,W,54.54,0.92,150318,,,D*49

$GPRMC,170912.000,A,3742.6364,N,12224.0936,W,53.11,12.12,150318,,,D*73

$GPRMC,170919.000,A,3742.7389,N,12224.0643,W,54.35,12.85,150318,,,D*78

$GPRMC,170926.000,A,3742.8434,N,12224.0344,W,55.06,12.79,150318,,,D*7A

$GPRMC,170933.000,V,,,,,56.24,13.02,150318,,,N*49

$GPRMC,170940.000,V,,,,,31.04,13.06,150318,,,N*4A

$GPRMC,170947.000,V,,,,,0.09,13.06,150318,,,N*72

$GPRMC,170954.000,V,,,,,0.00,13.06,150318,,,N*79

$GPRMC,171001.000,V,,,,,53.85,14.51,150318,,,N*4F

$GPRMC,171008.000,A,3743.4321,N,12223.8129,W,55.37,13.48,150318,,,D*77

$GPRMC,171015.000,A,3743.5440,N,12223.7868,W,56.13,7.53,150318,,,D*43

$GPRMC,171022.000,A,3743.6529,N,12223.7716,W,57.20,6.40,150318,,,D*4E

$GPRMC,171029.000,A,3743.7658,N,12223.7553,W,57.82,6.09,150318,,,D*47

$GPRMC,171037.000,A,3743.8947,N,12223.7391,W,58.67,5.61,150318,,,D*47

$GPRMC,171044.000,A,3744.0083,N,12223.7250,W,58.61,5.65,150318,,,D*43

$GPRMC,171051.000,V,,,,,57.50,5.72,150318,,,N*77

$GPRMC,171058.000,V,,,,,14.12,354.38,150318,,,N*76

$GPRMC,171105.000,A,3744.3569,N,12223.6752,W,60.54,6.71,150318,,,D*48

$GPRMC,171112.000,A,3744.4756,N,12223.6583,W,60.78,6.40,150318,,,D*45

$GPRMC,171119.000,A,3744.5871,N,12223.6419,W,55.23,6.02,150318,,,D*49

$GPRMC,171126.000,A,3744.6883,N,12223.6272,W,49.37,6.51,150318,,,D*4E

$GPRMC,171133.000,A,3744.7777,N,12223.6140,W,43.87,5.67,150318,,,D*4A

$GPRMC,171140.000,A,3744.8564,N,12223.6036,W,38.58,6.00,150318,,,D*4D

$GPRMC,171147.000,A,3744.9297,N,12223.5943,W,37.64,6.28,150318,,,D*42

$GPRMC,171154.000,A,3745.0010,N,12223.5835,W,37.55,6.35,150318,,,D*4B

$GPRMC,171201.000,A,3745.0732,N,12223.5745,W,37.65,6.00,150318,,,D*42

$GPRMC,171208.000,A,3745.1463,N,12223.5640,W,37.97,7.38,150318,,,D*4E

$GPRMC,171215.000,A,3745.2195,N,12223.5518,W,37.93,7.52,150318,,,D*4B

$GPRMC,171222.000,V,,,,,38.47,5.28,150318,,,N*71

$GPRMC,171229.000,A,3745.3599,N,12223.5581,W,36.33,0.59,150318,,,D*4A

$GPRMC,171236.000,A,3745.4301,N,12223.5498,W,31.55,358.09,150318,,,D*41

$GPRMC,171243.000,A,3745.4909,N,12223.5454,W,30.62,356.89,150318,,,D*42

$GPRMC,171250.000,A,3745.5434,N,12223.5506,W,26.51,358.67,150318,,,D*4D

$GPRMC,171257.000,V,,,,,26.55,358.71,150318,,,N*78

$GPRMC,171304.000,V,,,,,14.72,358.71,150318,,,N*7B

$GPRMC,171311.000,V,,,,,0.04,358.71,150318,,,N*4B

$GPRMC,171318.000,V,,,,,0.00,358.71,150318,,,N*46

$GPRMC,171325.000,V,,,,,0.00,358.71,150318,,,N*48

$GPRMC,171332.000,V,,,,,0.00,358.71,150318,,,N*4E

$GPRMC,171339.000,V,,,,,4.36,318.04,150318,,,N*42

$GPRMC,171346.000,A,3745.9105,N,12223.5910,W,2.64,296.78,150318,,,D*76

$GPRMC,171353.000,V,,,,,2.95,248.49,150318,,,N*4C

$GPRMC,171400.000,V,,,,,5.88,298.93,150318,,,N*4C

$GPRMC,171407.000,V,,,,,7.94,312.45,150318,,,N*4C

$GPRMC,171414.000,V,,,,,15.39,316.82,150318,,,N*75

$GPRMC,171421.000,A,3746.0892,N,12223.8278,W,18.92,316.35,150318,,,D*47

$GPRMC,171428.000,A,3746.1334,N,12223.8705,W,16.22,314.22,150318,,,D*46

$GPRMC,171435.000,A,3746.1582,N,12223.8970,W,15.19,315.56,150318,,,D*44

$GPRMC,171442.000,A,3746.1812,N,12223.9269,W,15.37,316.38,150318,,,D*45

$GPRMC,171449.000,A,3746.2081,N,12223.9576,W,16.85,301.87,150318,,,D*4E

$GPRMC,171456.000,A,3746.2277,N,12223.9818,W,12.85,314.60,150318,,,D*47

$GPRMC,171503.000,A,3746.2452,N,12223.9984,W,10.34,322.79,150318,,,D*46

$GPRMC,171510.000,A,3746.2622,N,12224.0081,W,9.55,340.09,150318,,,D*7F

$GPRMC,171517.000,A,3746.2815,N,12224.0134,W,9.91,350.62,150318,,,D*79

$GPRMC,171524.000,A,3746.3003,N,12224.0127,W,9.57,5.65,150318,,,D*7B

$GPRMC,171531.000,A,3746.3182,N,12224.0089,W,9.86,16.61,150318,,,D*48

$GPRMC,171538.000,A,3746.3376,N,12223.9997,W,10.36,28.97,150318,,,D*77

$GPRMC,171545.000,A,3746.3540,N,12223.9854,W,10.22,41.83,150318,,,D*7F

$GPRMC,171552.000,A,3746.3679,N,12223.9679,W,9.41,44.42,150318,,,D*44

$GPRMC,171559.000,A,3746.3812,N,12223.9507,W,9.62,47.85,150318,,,D*4F

$GPRMC,171606.000,A,3746.4001,N,12223.9313,W,11.94,37.90,150318,,,D*7B

$GPRMC,171613.000,A,3746.4198,N,12223.9124,W,11.89,38.97,150318,,,D*7C

$GPRMC,171620.000,A,3746.4380,N,12223.8916,W,12.60,45.00,150318,,,D*7F

$GPRMC,171627.000,A,3746.4554,N,12223.8689,W,12.21,44.58,150318,,,D*77

$GPRMC,171634.000,A,3746.4710,N,12223.8489,W,9.42,43.09,150318,,,D*49

$GPRMC,171641.000,A,3746.4813,N,12223.8359,W,5.88,50.77,150318,,,D*4C

$GPRMC,171648.000,A,3746.4904,N,12223.8239,W,6.95,47.55,150318,,,D*4C

$GPRMC,171655.000,A,3746.5014,N,12223.8113,W,7.33,43.07,150318,,,D*4C

$GPRMC,171702.000,A,3746.5107,N,12223.8001,W,6.20,46.74,150318,,,D*4C

$GPRMC,171709.000,A,3746.5177,N,12223.7918,W,5.36,43.86,150318,,,D*42

$GPRMC,171716.000,A,3746.5230,N,12223.7838,W,4.11,48.11,150318,,,D*4E

$GPRMC,171723.000,A,3746.5283,N,12223.7743,W,4.88,46.37,150318,,,D*49

$GPRMC,171730.000,A,3746.5359,N,12223.7653,W,5.06,46.42,150318,,,D*48

$GPRMC,171737.000,A,3746.5433,N,12223.7557,W,2.37,47.34,150318,,,D*46

$GPRMC,171744.000,A,3746.5457,N,12223.7527,W,1.06,47.34,150318,,,D*46

$GPRMC,171751.000,A,3746.5470,N,12223.7524,W,0.45,47.34,150318,,,D*42

$GPRMC,171758.000,A,3746.5472,N,12223.7525,W,0.05,47.34,150318,,,D*4C

$GPRMC,171805.000,A,3746.5474,N,12223.7528,W,0.00,47.34,150318,,,D*45

$GPRMC,171812.000,A,3746.5474,N,12223.7528,W,0.05,47.34,150318,,,D*46

$GPRMC,171819.000,A,3746.5474,N,12223.7528,W,0.21,47.34,150318,,,D*4B

$GPRMC,171826.000,A,3746.5476,N,12223.7525,W,0.14,47.34,150318,,,D*4E

$GPRMC,171833.000,A,3746.5478,N,12223.7525,W,0.04,47.34,150318,,,D*45

$GPRMC,171840.000,A,3746.5479,N,12223.7527,W,0.23,47.34,150318,,,D*47

$GPRMC,171847.000,A,3746.5485,N,12223.7530,W,0.51,47.34,150318,,,D*40

$GPRMC,171854.000,A,3746.5493,N,12223.7511,W,1.73,47.34,150318,,,D*47

$GPRMC,171901.000,A,3746.5566,N,12223.7482,W,1.46,81.55,150318,,,D*4D

$GPRMC,171902.000,A,3746.5570,N,12223.7479,W,1.90,61.09,150318,$GPRMC,171909.000,A,3746.5596,N,12223.7451,W,2.50,31.63

$GPRMC,171916.000,A,3746.5619,N,12223.7421,W,2.09,33.38,150318,,,D*43

$GPRMC,171923.000,A,3746.5661,N,12223.7380,W,1.80,22.52,150318,,,D*48

$GPRMC,171930.000,A,3746.5671,N,12223.7334,W,2.75,35.16,150318,,,D*4B

$GPRMC,171937.000,A,3746.5667,N,12223.7291,W,1.19,109.47,150318,,,D*76

$GPRMC,171944.000,A,3746.5690,N,12223.7274,W,1.15,352.70,150318,,,D*75

$GPRMC,171951.000,A,3746.5711,N,12223.7261,W,1.15,38.79,150318,,,D*4B

$GPRMC,171958.000,A,3746.5728,N,12223.7256,W,0.38,29.42,150318,,,D*4A

$GPRMC,172005.000,A,3746.5733,N,12223.7243,W,0.87,70.60,150318,,,D*4E

$GPRMC,172012.000,A,3746.5745,N,12223.7218,W,1.38,59.45,150318,,,D*4E

$GPRMC,172019.000,A,3746.5765,N,12223.7197,W,1.58,49.99,150318,,,D*45

$GPRMC,172026.000,A,3746.5775,N,12223.7177,W,1.31,53.36,150318,,,D*47

$GPRMC,172033.000,A,3746.5805,N,12223.7157,W,2.13,45.32,150318,,,D*49

$GPRMC,172040.000,A,3746.5817,N,12223.7105,W,1.91,57.27,150318,,,D*47

$GPRMC,172047.000,A,3746.5815,N,12223.7094,W,1.57,53.15,150318,,,D*44

$GPRMC,172054.000,A,3746.5821,N,12223.7073,W,1.46,64.51,150318,,,D*4C

$GPRMC,172101.000,A,3746.5843,N,12223.7076,W,0.99,34.63,150318,,,D*4B

$GPRMC,172108.000,A,3746.5838,N,12223.7060,W,0.38,19.35,150318,,,D*4E

$GPRMC,172115.000,A,3746.5847,N,12223.7040,W,0.88,22.27,150318,,,D*48

$GPRMC,172122.000,A,3746.5878,N,12223.6999,W,1.37,18.83,150318,,,D*4E

$GPRMC,172129.000,A,3746.5918,N,12223.6925,W,2.46,61.80,150318,,,D*4D

$GPRMC,172136.000,A,3746.5950,N,12223.6890,W,1.48,58.41,150318,,,D*4A

$GPRMC,172143.000,A,3746.5957,N,12223.6864,W,1.85,53.87,150318,,,D*44

$GPRMC,172151.000,A,3746.5964,N,12223.6867,W,1.70,52.37,150318,,,D*44

$GPRMC,172158.000,A,3746.5969,N,12223.6888,W,0.87,36.73,150318,,,D*4A

$GPRMC,172205.000,A,3746.5963,N,12223.6912,W,1.56,40.35,150318,,,D*47

$GPRMC,172212.000,A,3746.5976,N,12223.6904,W,2.91,53.90,150318,,,D*47

$GPRMC,172219.000,A,3746.5985,N,12223.6872,W,2.02,51.70,150318,,,D*46

$GPRMC,172226.000,A,3746.6003,N,12223.6822,W,1.97,41.19,150318,,,D*4A

$GPRMC,172233.000,A,3746.5995,N,12223.6806,W,1.29,48.15,150318,,,D*4D

$GPRMC,172240.000,A,3746.6008,N,12223.6791,W,1.51,40.97,150318,,,D*4B

$GPRMC,172247.000,A,3746.6029,N,12223.6810,W,1.09,38.69,150318,,,D*4A

$GPRMC,172254.000,A,3746.6008,N,12223.6824,W,0.53,32.61,150318,,,D*40

$GPRMC,172301.000,A,3746.5977,N,12223.6818,W,1.31,4.99,150318,,,D*7B

$GPRMC,172308.000,A,3746.5979,N,12223.6828,W,1.38,15.35,150318,,,D*40

$GPRMC,172315.000,A,3746.5985,N,12223.6867,W,1.30,57.79,150318,,,D*42

$GPRMC,172322.000,A,3746.5977,N,12223.6823,W,0.85,65.70,150318,,,D*4C

$GPRMC,172329.000,A,3746.5947,N,12223.6806,W,0.59,79.63,150318,,,D*4D

$GPRMC,172336.000,A,3746.5934,N,12223.6796,W,0.71,65.83,150318,,,D*48

$GPRMC,172344.000,A,3746.5925,N,12223.6794,W,0.71,354.27,150318,,,D*70

$GPRMC,172351.000,A,3746.5921,N,12223.6779,W,0.42,57.67,150318,,,D*47

$GPRMC,172358.000,A,3746.5938,N,12223.6755,W,0.74,1.48,150318,,,D*73

$GPRMC,172405.000,A,3746.5926,N,12223.6748,W,0.06,37.73,150318,,,D*47

$GPRMC,172412.000,A,3746.5929,N,12223.6748,W,0.29,37.73,150318,,,D*43

$GPRMC,172419.000,A,3746.5911,N,12223.6731,W,0.52,62.84,150318,,,D*49

$GPRMC,172426.000,A,3746.5908,N,12223.6716,W,0.42,57.50,150318,,,D*46

$GPRMC,172433.000,A,3746.5905,N,12223.6719,W,0.33,357.36,150318,,,D*75

$GPRMC,172440.000,A,3746.5890,N,12223.6714,W,0.49,44.86,150318,,,D*46

$GPRMC,172447.000,A,3746.5882,N,12223.6703,W,0.42,78.29,150318,,,D*45

$GPRMC,172454.000,A,3746.5885,N,12223.6701,W,0.54,68.96,150318,,,D*40

$GPRMC,172501.000,A,3746.5891,N,12223.6704,W,0.69,14.42,150318,,,D*4D

$GPRMC,172508.000,A,3746.5864,N,12223.6678,W,0.87,125.58,150318,,,D*7C

$GPRMC,172515.000,A,3746.5856,N,12223.6670,W,0.34,55.01,150318,,,D*4B

$GPRMC,172522.000,A,3746.5879,N,12223.6651,W,0.59,23.30,150318,,,D*49

$GPRMC,172529.000,A,3746.5871,N,12223.6673,W,0.38,46.69,150318,,,D*42

$GPRMC,172536.000,A,3746.5864,N,12223.6692,W,0.98,51.56,150318,,,D*47

$GPRMC,172543.000,A,3746.5854,N,12223.6738,W,0.75,10.62,150318,,,D*46

$GPRMC,172550.000,A,3746.5839,N,12223.6735,W,0.17,60.58,150318,,,D*48

$GPRMC,172557.000,A,3746.5848,N,12223.6711,W,0.68,82.97,150318,,,D*48

$GPRMC,172604.000,A,3746.5847,N,12223.6649,W,3.64,120.84,150318,,,D*7A

$GPRMC,172611.000,A,3746.5853,N,12223.6682,W,3.50,123.76,150318,,,D*75

$GPRMC,172618.000,A,3746.5802,N,12223.6647,W,2.34,157.40,150318,,,D*74

$GPRMC,172625.000,A,3746.5758,N,12223.6691,W,2.16,222.34,150318,,,D*73

$GPRMC,172632.000,A,3746.5730,N,12223.6721,W,2.77,207.44,150318,,,D*76

$GPRMC,172639.000,A,3746.5693,N,12223.6756,W,2.12,226.23,150318,,,D*74

$GPRMC,172646.000,A,3746.5666,N,12223.6802,W,2.19,220.53,150318,,,D*72

$GPRMC,172653.000,A,3746.5634,N,12223.6845,W,2.40,227.62,150318,,,D*7B

$GPRMC,172700.000,A,3746.5590,N,12223.6894,W,2.46,225.82,150318,,,D*77

$GPRMC,172707.000,A,3746.5557,N,12223.6937,W,2.85,218.61,150318,,,D*7F

$GPRMC,172714.000,A,3746.5524,N,12223.6972,W,2.29,217.76,150318,,,D*77

$GPRMC,172721.000,A,3746.5508,N,12223.7000,W,0.21,245.98,150318,,,D*7F

$GPRMC,172728.000,A,3746.5503,N,12223.6995,W,0.16,203.44,150318,,,D*7E

$GPRMC,172735.000,A,3746.5505,N,12223.6996,W,0.08,203.44,150318,,,D*78

$GPRMC,172742.000,A,3746.5505,N,12223.6996,W,0.01,203.44,150318,,,D*71

$GPRMC,172749.000,A,3746.5517,N,12223.6978,W,1.99,59.88,150318,,,D*44

$GPRMC,172756.000,A,3746.5554,N,12223.6940,W,2.59,50.56,150318,,,D*43

$GPRMC,172803.000,A,3746.5589,N,12223.6897,W,2.38,56.76,150318,,,D*44

$GPRMC,172810.000,A,3746.5619,N,12223.6847,W,2.56,49.77,150318,,,D*46

$GPRMC,172817.000,A,3746.5647,N,12223.6803,W,2.19,35.30,150318,,,D*49

$GPRMC,172824.000,A,3746.5677,N,12223.6762,W,2.97,52.81,150318,,,D*4F

$GPRMC,172831.000,A,3746.5708,N,12223.6724,W,2.16,39.46,150318,,,D*4F

$GPRMC,172838.000,A,3746.5749,N,12223.6678,W,2.03,52.74,150318,,,D*43

$GPRMC,172845.000,A,3746.5786,N,12223.6627,W,2.76,39.40,150318,,,D*48

$GPRMC,172852.000,A,3746.5827,N,12223.6566,W,3.42,47.84,150318,,,D*4B

$GPRMC,172859.000,A,3746.5869,N,12223.6520,W,3.05,42.19,150318,,,D*4A

$GPRMC,172906.000,A,3746.5913,N,12223.6436,W,3.04,52.33,150318,,,D*43

$GPRMC,172913.000,A,3746.5940,N,12223.6372,W,2.93,55.49,150318,,,D*43

$GPRMC,172920.000,A,3746.5961,N,12223.6309,W,2.79,61.39,150318,,,D*48

$GPRMC,172927.000,A,3746.5984,N,12223.6236,W,2.93,47.24,150318,,,D*45

$GPRMC,172934.000,A,3746.6002,N,12223.6167,W,2.76,61.97,150318,,,D*43

$GPRMC,172941.000,A,3746.6022,N,12223.6101,W,2.36,47.29,150318,,,D*46

$GPRMC,172948.000,A,3746.6049,N,12223.6044,W,1.91,44.95,150318,,,D*48

$GPRMC,172955.000,A,3746.6068,N,12223.6014,W,0.45,314.02,150318,,,D*72

$GPRMC,173002.000,A,3746.6076,N,12223.6033,W,0.97,287.67,150318,,,D*75

$GPRMC,173009.000,A,3746.6084,N,12223.6053,W,0.94,292.27,150318,,,D*76

$GPRMC,173016.000,A,3746.6085,N,12223.6074,W,0.77,285.73,150318,,,D*76

$GPRMC,173023.000,A,3746.6071,N,12223.6113,W,0.97,260.06,150318,,,D*7C

$GPRMC,173030.000,A,3746.6063,N,12223.6156,W,1.05,254.41,150318,,,D*72

$GPRMC,173037.000,A,3746.6054,N,12223.6161,W,0.66,249.31,150318,,,D*7A

$GPRMC,173044.000,A,3746.6045,N,12223.6164,W,0.35,249.68,150318,,,D*71

$GPRMC,173051.000,A,3746.6046,N,12223.6169,W,0.25,249.68,150318,,,D*7A

$GPRMC,173058.000,A,3746.6063,N,12223.6177,W,0.70,324.70,150318,,,D*78

$GPRMC,173105.000,A,3746.6070,N,12223.6201,W,0.63,323.53,150318,,,D*75

$GPRMC,173112.000,A,3746.6065,N,12223.6208,W,0.26,323.53,150318,,,D*7F

$GPRMC,173119.000,A,3746.6069,N,12223.6212,W,0.44,323.53,150318,,,D*77

$GPRMC,173126.000,A,3746.6077,N,12223.6217,W,0.51,323.53,150318,,,D*75

$GPRMC,173133.000,A,3746.6087,N,12223.6213,W,0.59,48.19,150318,,,D*42

$GPRMC,173140.000,A,3746.6084,N,12223.6162,W,0.35,55.56,150318,,,D*4D

$GPRMC,173147.000,A,3746.6085,N,12223.6147,W,0.34,55.56,150318,,,D*4D

$GPRMC,173154.000,A,3746.6091,N,12223.6142,W,0.27,55.56,150318,,,D*4D

$GPRMC,173202.000,A,3746.6097,N,12223.6138,W,0.31,55.56,150318,,,D*41

$GPRMC,173209.000,A,3746.6102,N,12223.6140,W,0.22,55.56,150318,,,D*4A

$GPRMC,173216.000,A,3746.6103,N,12223.6146,W,0.29,55.56,150318,,,D*48

$GPRMC,173223.000,A,3746.6107,N,12223.6153,W,0.27,55.56,150318,,,D*40

$GPRMC,173230.000,A,3746.6113,N,12223.6155,W,0.32,55.56,150318,,,D*45

$GPRMC,173237.000,A,3746.6120,N,12223.6155,W,0.23,55.56,150318,,,D*42

$GPRMC,173244.000,A,3746.6113,N,12223.6154,W,0.65,116.27,150318,,,D*75

$GPRMC,173251.000,A,3746.6096,N,12223.6154,W,0.49,120.81,150318,,,D*7A

$GPRMC,173258.000,A,3746.6089,N,12223.6145,W,0.58,127.53,150318,,,D*75

$GPRMC,173305.000,A,3746.6066,N,12223.6115,W,0.73,140.13,150318,,,D*74

$GPRMC,173312.000,A,3746.6056,N,12223.6089,W,0.64,143.48,150318,,,D*7E

$GPRMC,173319.000,A,3746.6052,N,12223.6073,W,0.40,143.48,150318,,,D*72

$GPRMC,173326.000,A,3746.6047,N,12223.6066,W,0.40,143.48,150318,,,D*7E

$GPRMC,173333.000,A,3746.6045,N,12223.6055,W,0.46,143.48,150318,,,D*7E

$GPRMC,173340.000,A,3746.6042,N,12223.6027,W,0.70,93.72,150318,,,D*48

$GPRMC,173347.000,A,3746.5983,N,12223.5974,W,1.29,112.36,150318,,,D*71

$GPRMC,173354.000,A,3746.5970,N,12223.5927,W,0.52,101.96,150318,,,D*7C

$GPRMC,173401.000,A,3746.5968,N,12223.5918,W,0.27,101.96,150318,,,D*7C

$GPRMC,173408.000,A,3746.5957,N,12223.5901,W,0.77,133.38,150318,,,D*71

$GPRMC,173415.000,A,3746.5965,N,12223.5878,W,0.47,129.94,150318,,,D*7D

$GPRMC,173422.000,A,3746.5960,N,12223.5872,W,0.41,129.94,150318,,,D*70

$GPRMC,173429.000,A,3746.5954,N,12223.5871,W,0.10,129.94,150318,,,D*7B

$GPRMC,173436.000,A,3746.5950,N,12223.5872,W,0.17,129.94,150318,,,D*75

$GPRMC,173444.000,A,3746.5952,N,12223.5876,W,0.22,129.94,150318,,,D*70

$GPRMC,173451.000,A,3746.5957,N,12223.5844,W,0.69,94.06,150318,,,D*43

$GPRMC,173458.000,A,3746.5960,N,12223.5834,W,0.88,168.68,150318,,,D*7C

$GPRMC,173505.000,A,3746.5951,N,12223.5837,W,0.28,168.68,150318,,,D*7E

$GPRMC,173512.000,A,3746.5954,N,12223.5832,W,0.59,113.94,150318,,,D*71

$GPRMC,173519.000,A,3746.5954,N,12223.5813,W,0.66,96.70,150318,,,D*43

