$GPRMC,172117.000,A,3732.7420,N,12216.5237,W,0.16,234.45,130318,,,A*75


$GPRMC,172124.000,A,3732.7419,N,12216.5260,W,0.06,279.64,130318,,,A*76


$GPRMC,172131.000,A,3732.7418,N,12216.5251,W,0.23,192.57,130318,,,A*70


$GPRMC,172138.000,A,3732.7419,N,12216.5235,W,0.13,97.16,130318,,,A*48


$GPRMC,172145.000,A,3732.7417,N,12216.5229,W,0.18,84.49,130318,,,A*42


$GPRMC,172153.000,A,3732.7422,N,12216.5223,W,0.29,60.88,130318,,,A*4C


$GPRMC,172200.000,A,3732.7426,N,12216.5222,W,0.62,337.31,130318,,,A*70


$GPRMC,172207.000,A,3732.7431,N,12216.5223,W,0.16,148.30,130318,,,A*78


$GPRMC,172214.000,A,3732.7430,N,12216.5198,W,1.09,99.50,130318,,,A*4C


$GPRMC,172221.000,A,3732.7431,N,12216.5202,W,0.45,283.43,130318,,,A*79


$GPRMC,172228.000,A,3732.7431,N,12216.5207,W,0.05,300.51,130318,,,A*78


$GPRMC,172235.000,A,3732.7434,N,12216.5208,W,0.22,332.20,130318,,,A*7C


$GPRMC,172242.000,A,3732.7437,N,12216.5208,W,0.17,18.60,130318,,,A*46


$GPRMC,172249.000,A,3732.7437,N,12216.5208,W,0.02,87.37,130318,,,A*4D


$GPRMC,172257.000,A,3732.7437,N,12216.5208,W,0.02,282.74,130318,,,A*72


$GPRMC,172304.000,A,3732.7437,N,12216.5208,W,0.01,233.72,130318,,,A*7A


$GPRMC,172311.000,A,3732.7437,N,12216.5208,W,0.02,126.11,130318,,,A*7F


$GPRMC,172318.000,A,3732.7437,N,12216.5208,W,0.01,205.95,130318,,,A*7B


$GPRMC,172325.000,A,3732.7437,N,12216.5208,W,0.03,267.47,130318,,,A*7C


$GPRMC,172332.000,A,3732.7437,N,12216.5208,W,0.02,288.62,130318,,,A*7D


$GPRMC,172339.000,A,3732.7437,N,12216.5208,W,0.03,289.54,130318,,,A*73


$GPRMC,172346.000,A,3732.7435,N,12216.5215,W,0.56,273.94,130318,,,A*7C


$GPRMC,172353.000,A,3732.7430,N,12216.5226,W,0.83,229.81,130318,,,A*7E


$GPRMC,172400.000,A,3732.7411,N,12216.5256,W,0.92,229.16,130318,,,A*75


$GPRMC,172407.000,A,3732.7397,N,12216.5259,W,0.20,88.48,130318,,,A*4F


$GPRMC,172414.000,A,3732.7398,N,12216.5261,W,0.32,101.47,130318,,,A*75


$GPRMC,172421.000,A,3732.7400,N,12216.5259,W,0.10,37.15,130318,,,A*4D


$GPRMC,172428.000,A,3732.7401,N,12216.5257,W,0.24,173.16,130318,,,A*7E


$GPRMC,172435.000,A,3732.7396,N,12216.5257,W,0.22,184.86,130318,,,A*7C


$GPRMC,172442.000,A,3732.7394,N,12216.5257,W,0.07,1.30,130318,,,A*78


$GPRMC,172449.000,A,3732.7396,N,12216.5254,W,0.18,16.39,130318,,,A*43


$GPRMC,172456.000,A,3732.7397,N,12216.5254,W,0.17,147.65,130318,,,A*7F


$GPRMC,172503.000,A,3732.7395,N,12216.5252,W,0.29,113.00,130318,,,A*75


$GPRMC,172510.000,A,3732.7394,N,12216.5249,W,0.06,57.90,130318,,,A*49


$GPRMC,172517.000,A,3732.7396,N,12216.5245,W,0.42,65.71,130318,,,A*4E


$GPRMC,172524.000,A,3732.7397,N,12216.5237,W,0.31,105.88,130318,,,A*7F


$GPRMC,172531.000,A,3732.7399,N,12216.5223,W,0.40,36.24,130318,,,A*41


$GPRMC,172538.000,A,3732.7397,N,12216.5213,W,0.25,51.30,130318,,,A*42


$GPRMC,172545.000,A,3732.7399,N,12216.5211,W,0.29,95.41,130318,,,A*46


$GPRMC,172552.000,A,3732.7396,N,12216.5210,W,0.29,238.86,130318,,,A*70


$GPRMC,172559.000,A,3732.7383,N,12216.5246,W,1.93,246.83,130318,,,A*70


$GPRMC,172606.000,A,3732.7345,N,12216.5284,W,0.55,198.88,130318,,,A*7D


$GPRMC,172613.000,A,3732.7375,N,12216.5344,W,5.48,304.08,130318,,,A*71


$GPRMC,172620.000,A,3732.7440,N,12216.5515,W,6.88,299.22,130318,,,A*70


$GPRMC,172627.000,A,3732.7552,N,12216.5614,W,8.44,16.63,130318,,,A*49


$GPRMC,172634.000,A,3732.7784,N,12216.5480,W,14.26,29.59,130318,,,A*71


$GPRMC,172641.000,A,3732.8082,N,12216.5297,W,18.00,28.66,130318,,,A*78


$GPRMC,172648.000,A,3732.8407,N,12216.5123,W,17.59,12.67,130318,,,A*7F


$GPRMC,172655.000,A,3732.8756,N,12216.5115,W,19.56,347.54,130318,,,A*43


$GPRMC,172702.000,A,3732.9106,N,12216.5310,W,18.33,325.19,130318,,,A*4A


$GPRMC,172709.000,A,3732.9343,N,12216.5616,W,18.12,309.92,130318,,,A*4F


$GPRMC,172716.000,A,3732.9584,N,12216.6007,W,21.16,308.80,130318,,,A*45


$GPRMC,172723.000,A,3732.9828,N,12216.6397,W,20.22,307.73,130318,,,A*47


$GPRMC,172730.000,A,3733.0025,N,12216.6755,W,17.46,306.76,130318,,,A*40


$GPRMC,172737.000,A,3733.0252,N,12216.7112,W,20.09,315.07,130318,,,A*4A


$GPRMC,172744.000,A,3733.0583,N,12216.7345,W,18.25,346.80,130318,,,A*49


$GPRMC,172751.000,A,3733.0852,N,12216.7362,W,7.13,4.68,130318,,,A*71


$GPRMC,172758.000,A,3733.0942,N,12216.7453,W,12.42,287.18,130318,,,A*43


$GPRMC,172805.000,A,3733.1061,N,12216.7879,W,19.48,302.26,130318,,,A*49


$GPRMC,172812.000,A,3733.1227,N,12216.8245,W,14.24,273.65,130318,,,A*42


$GPRMC,172819.000,A,3733.0965,N,12216.8613,W,28.08,219.17,130318,,,A*4A


$GPRMC,172826.000,A,3733.0490,N,12216.9084,W,32.16,218.46,130318,,,A*49


$GPRMC,172833.000,A,3733.0001,N,12216.9553,W,30.58,217.91,130318,,,A*43


$GPRMC,172840.000,A,3732.9501,N,12216.9972,W,31.26,207.27,130318,,,A*41


$GPRMC,172847.000,A,3732.8874,N,12217.0224,W,34.75,197.80,130318,,,A*4C


$GPRMC,172854.000,A,3732.8256,N,12217.0463,W,31.87,199.14,130318,,,A*4A


$GPRMC,172901.000,A,3732.7885,N,12217.0829,W,15.15,230.62,130318,,,A*4E


$GPRMC,172908.000,A,3732.7848,N,12217.0901,W,0.03,225.64,130318,,,A*7C


$GPRMC,172915.000,A,3732.7849,N,12217.0904,W,0.02,225.64,130318,,,A*75


$GPRMC,172922.000,A,3732.7849,N,12217.0905,W,0.01,225.64,130318,,,A*73


$GPRMC,172929.000,A,3732.7850,N,12217.0906,W,0.00,225.64,130318,,,A*72


$GPRMC,172936.000,A,3732.7847,N,12217.0903,W,0.00,225.64,130318,,,A*7F


$GPRMC,172943.000,A,3732.7847,N,12217.0903,W,0.01,225.64,130318,,,A*7C


$GPRMC,172950.000,A,3732.7824,N,12217.0946,W,9.73,238.50,130318,,,A*7D


$GPRMC,172957.000,A,3732.7626,N,12217.1292,W,23.61,233.61,130318,,,A*47


$GPRMC,173004.000,A,3732.7300,N,12217.1847,W,31.29,233.84,130318,,,A*4E


$GPRMC,173011.000,A,3732.6981,N,12217.2403,W,26.53,234.86,130318,,,A*49


$GPRMC,173018.000,A,3732.6705,N,12217.2911,W,22.24,235.53,130318,,,A*41


$GPRMC,173025.000,A,3732.6501,N,12217.3351,W,19.52,261.23,130318,,,A*49


$GPRMC,173032.000,A,3732.6783,N,12217.3659,W,20.27,354.29,130318,,,A*4F


$GPRMC,173039.000,A,3732.6868,N,12217.3197,W,22.05,124.90,130318,,,A*4E


$GPRMC,173046.000,A,3732.6410,N,12217.2692,W,34.36,137.30,130318,,,A*49


$GPRMC,173053.000,A,3732.5935,N,12217.2190,W,26.80,140.98,130318,,,A*4D


$GPRMC,173100.000,A,3732.5610,N,12217.1878,W,12.44,141.85,130318,,,A*4C


$GPRMC,173107.000,A,3732.5484,N,12217.1749,W,3.85,142.21,130318,,,A*79


$GPRMC,173114.000,A,3732.5404,N,12217.1661,W,11.09,141.60,130318,,,A*49


$GPRMC,173121.000,A,3732.5249,N,12217.1510,W,11.69,137.09,130318,,,A*4D


$GPRMC,173128.000,A,3732.5001,N,12217.1271,W,19.26,144.11,130318,,,A*44


$GPRMC,173135.000,A,3732.4649,N,12217.0949,W,26.22,142.83,130318,,,A*47


$GPRMC,173142.000,A,3732.4159,N,12217.0469,W,35.01,141.86,130318,,,A*4B


$GPRMC,173149.000,A,3732.3565,N,12216.9913,W,37.97,143.81,130318,,,A*4C


$GPRMC,173156.000,A,3732.2958,N,12216.9358,W,38.20,143.35,130318,,,A*48


$GPRMC,173203.000,A,3732.2342,N,12216.8790,W,38.10,143.73,130318,,,A*4A


$GPRMC,173210.000,A,3732.1722,N,12216.8214,W,40.30,143.15,130318,,,A*4D


$GPRMC,173217.000,A,3732.1089,N,12216.7633,W,40.04,143.74,130318,,,A*42


$GPRMC,173224.000,A,3732.0449,N,12216.7047,W,41.45,143.97,130318,,,D*42


$GPRMC,173231.000,A,3731.9771,N,12216.6419,W,44.42,143.71,130318,,,D*40


$GPRMC,173238.000,A,3731.9090,N,12216.5790,W,43.14,143.47,130318,,,D*41


$GPRMC,173245.000,A,3731.8413,N,12216.5134,W,42.50,140.49,130318,,,D*41


$GPRMC,173252.000,A,3731.7786,N,12216.4465,W,43.55,137.90,130318,,,D*47


$GPRMC,173259.000,A,3731.7151,N,12216.3735,W,45.73,137.27,130318,,,D*4F


$GPRMC,173306.000,A,3731.6474,N,12216.2965,W,46.09,137.61,130318,,,D*41


$GPRMC,173313.000,A,3731.5807,N,12216.2200,W,46.56,137.63,130318,,,D*4E


$GPRMC,173320.000,A,3731.5114,N,12216.1430,W,47.20,137.92,130318,,,D*4D


$GPRMC,173327.000,A,3731.4406,N,12216.0633,W,48.66,137.80,130318,,,D*43


$GPRMC,173334.000,A,3731.3719,N,12215.9870,W,45.74,138.43,130318,,,D*46


$GPRMC,173341.000,A,3731.3067,N,12215.9133,W,45.18,137.74,130318,,,D*45


$GPRMC,173348.000,A,3731.2397,N,12215.8371,W,47.31,137.85,130318,,,D*43


$GPRMC,173355.000,A,3731.1707,N,12215.7596,W,47.39,137.94,130318,,,D*49


$GPRMC,173402.000,A,3731.1019,N,12215.6809,W,48.44,138.50,130318,,,D*4C


$GPRMC,173409.000,A,3731.0312,N,12215.6008,W,49.49,138.35,130318,,,D*48


$GPRMC,173416.000,A,3730.9596,N,12215.5202,W,47.48,137.77,130318,,,D*49


$GPRMC,173423.000,A,3730.8937,N,12215.4450,W,44.91,137.86,130318,,,D*40


$GPRMC,173430.000,A,3730.8255,N,12215.3695,W,47.03,139.45,130318,,,D*48


$GPRMC,173437.000,A,3730.7586,N,12215.2924,W,46.80,138.14,130318,,,D*42


$GPRMC,173444.000,A,3730.6880,N,12215.2133,W,47.89,138.19,130318,,,D*47


$GPRMC,173451.000,A,3730.6199,N,12215.1359,W,46.09,138.16,130318,,,D*49


$GPRMC,173458.000,A,3730.5540,N,12215.0625,W,44.54,138.28,130318,,,D*4B


$GPRMC,173505.000,A,3730.4914,N,12214.9918,W,41.24,138.53,130318,,,D*49


$GPRMC,173512.000,A,3730.4329,N,12214.9254,W,41.51,138.03,130318,,,D*4F


$GPRMC,173519.000,A,3730.3701,N,12214.8542,W,44.66,137.88,130318,,,D*41


$GPRMC,173526.000,A,3730.3063,N,12214.7815,W,44.96,138.00,130318,,,D*4E


$GPRMC,173533.000,A,3730.2393,N,12214.7054,W,47.14,138.12,130318,,,D*40


$GPRMC,173540.000,A,3730.1713,N,12214.6284,W,46.35,137.75,130318,,,D*49


$GPRMC,173547.000,A,3730.1022,N,12214.5504,W,47.96,137.88,130318,,,D*4D


$GPRMC,173554.000,A,3730.0327,N,12214.4717,W,48.29,138.16,130318,,,D*4A


$GPRMC,173601.000,A,3729.9674,N,12214.3968,W,42.43,137.20,130318,,,D*46


$GPRMC,173608.000,A,3729.9116,N,12214.3259,W,40.15,131.88,130318,,,D*40


$GPRMC,173615.000,A,3729.8634,N,12214.2486,W,41.06,123.73,130318,,,D*4B


$GPRMC,173622.000,A,3729.8224,N,12214.1554,W,45.57,115.24,130318,,,D*40


$GPRMC,173629.000,A,3729.7880,N,12214.0509,W,45.75,109.72,130318,,,D*47


$GPRMC,173636.000,A,3729.7593,N,12213.9444,W,46.57,109.89,130318,,,D*47


$GPRMC,173643.000,A,3729.7298,N,12213.8402,W,45.60,109.69,130318,,,D*43


$GPRMC,173650.000,A,3729.7004,N,12213.7376,W,38.58,110.14,130318,,,D*4E


$GPRMC,173657.000,A,3729.6755,N,12213.6526,W,36.58,110.17,130318,,,D*44


$GPRMC,173704.000,A,3729.6491,N,12213.5650,W,39.71,112.39,130318,,,D*43


$GPRMC,173711.000,A,3729.6149,N,12213.4724,W,42.90,115.49,130318,,,D*47


$GPRMC,173718.000,A,3729.5777,N,12213.3827,W,40.67,118.68,130318,,,D*49


$GPRMC,173725.000,A,3729.5380,N,12213.2952,W,40.26,119.19,130318,,,D*4B


$GPRMC,173732.000,A,3729.4973,N,12213.2055,W,42.87,118.81,130318,,,D*4D


$GPRMC,173739.000,A,3729.4573,N,12213.1147,W,41.90,119.83,130318,,,D*4D


$GPRMC,173746.000,A,3729.4150,N,12213.0314,W,38.24,122.97,130318,,,D*49


$GPRMC,173753.000,A,3729.3787,N,12212.9555,W,34.78,120.35,130318,,,D*42


$GPRMC,173800.000,A,3729.3418,N,12212.8926,W,29.92,137.15,130318,,,D*4B


$GPRMC,173807.000,A,3729.2941,N,12212.8577,W,25.44,161.81,130318,,,D*4D


$GPRMC,173814.000,A,3729.2574,N,12212.8520,W,14.15,183.33,130318,,,D*44


$GPRMC,173821.000,A,3729.2495,N,12212.8546,W,0.04,183.93,130318,,,D*73


$GPRMC,173828.000,A,3729.2499,N,12212.8547,W,0.03,183.93,130318,,,D*70


$GPRMC,173835.000,A,3729.2497,N,12212.8548,W,0.00,183.93,130318,,,D*7E


$GPRMC,173842.000,A,3729.2497,N,12212.8548,W,0.00,183.93,130318,,,D*7E


$GPRMC,173849.000,A,3729.2497,N,12212.8548,W,0.00,183.93,130318,,,D*75


$GPRMC,173856.000,A,3729.2497,N,12212.8548,W,0.00,183.93,130318,,,D*7B


$GPRMC,173903.000,A,3729.2497,N,12212.8548,W,0.00,183.93,130318,,,D*7A


$GPRMC,173910.000,A,3729.2497,N,12212.8548,W,0.01,183.93,130318,,,D*79


$GPRMC,173917.000,A,3729.2497,N,12212.8548,W,0.01,183.93,130318,,,D*7E


$GPRMC,173924.000,A,3729.2497,N,12212.8548,W,0.02,183.93,130318,,,D*7D


$GPRMC,173931.000,A,3729.2497,N,12212.8549,W,0.00,183.93,130318,,,D*7A


$GPRMC,173938.000,A,3729.2496,N,12212.8549,W,1.64,183.93,130318,,,D*71


$GPRMC,173945.000,A,3729.2306,N,12212.8525,W,14.64,148.79,130318,,,D*48


$GPRMC,173952.000,A,3729.2166,N,12212.8113,W,20.99,100.99,130318,,,D*4C


$GPRMC,173959.000,A,3729.2070,N,12212.7569,W,23.24,99.77,130318,,,D*73


$GPRMC,174006.000,A,3729.1987,N,12212.7046,W,18.47,101.62,130318,,,D*44


$GPRMC,174013.000,A,3729.1944,N,12212.6791,W,3.42,101.12,130318,,,D*7B


$GPRMC,174020.000,A,3729.1905,N,12212.6539,W,16.87,100.10,130318,,,D*40


$GPRMC,174027.000,A,3729.1828,N,12212.6059,W,20.61,100.25,130318,,,D*41


$GPRMC,174034.000,A,3729.1748,N,12212.5573,W,19.36,103.35,130318,,,D*4E


$GPRMC,174041.000,A,3729.1652,N,12212.5107,W,20.14,99.97,130318,,,D*71


$GPRMC,174048.000,A,3729.1580,N,12212.4644,W,16.73,102.49,130318,,,D*41


$GPRMC,174055.000,A,3729.1536,N,12212.4378,W,4.66,117.63,130318,,,D*71


$GPRMC,174102.000,A,3729.1422,N,12212.4384,W,7.98,195.91,130318,,,D*70


$GPRMC,174109.000,A,3729.1340,N,12212.4342,W,2.88,127.84,130318,,,D*7B


$GPRMC,174116.000,A,3729.1288,N,12212.4296,W,3.98,205.78,130318,,,D*78


$GPRMC,174123.000,A,3729.1257,N,12212.4310,W,0.23,188.11,130318,,,D*79


$GPRMC,174130.000,A,3729.1271,N,12212.4307,W,0.05,188.11,130318,,,D*7D


$GPRMC,174137.000,A,3729.1278,N,12212.4322,W,0.06,188.11,130318,,,D*77


$GPRMC,174222.000,A,3729.1306,N,12212.4334,W,0.28,188.11,130318,,,D*73


$GPRMC,174312.000,A,3729.1305,N,12212.4334,W,0.00,188.11,130318,,,D*78


$GPRMC,174402.000,A,3729.1297,N,12212.4352,W,0.21,188.11,130318,,,D*77


$GPRMC,174452.000,A,3729.1288,N,12212.4380,W,0.11,188.11,130318,,,D*70


$GPRMC,174542.000,A,3729.1297,N,12212.4382,W,0.10,188.11,130318,,,D*7D


$GPRMC,174632.000,A,3729.1293,N,12212.4383,W,0.21,188.11,130318,,,D*7E


$GPRMC,174722.000,A,3729.1296,N,12212.4385,W,0.01,188.11,130318,,,D*7F


$GPRMC,174812.000,A,3729.1297,N,12212.4384,W,0.01,188.11,130318,,,D*73


$GPRMC,174902.000,A,3729.1296,N,12212.4385,W,0.03,188.11,130318,,,D*71


$GPRMC,174952.000,A,3729.1295,N,12212.4385,W,0.02,188.11,130318,,,D*76


$GPRMC,175042.000,A,3729.1295,N,12212.4384,W,0.02,188.11,130318,,,D*7E


$GPRMC,175132.000,A,3729.1294,N,12212.4383,W,0.04,188.11,130318,,,D*78


$GPRMC,175222.000,A,3729.1287,N,12212.4356,W,1.25,144.59,130318,,,D*7E


$GPRMC,175312.000,A,3729.1144,N,12212.4129,W,0.32,195.04,130318,,,D*79


$GPRMC,175402.000,A,3729.1095,N,12212.4161,W,0.33,221.91,130318,,,D*7F


$GPRMC,175452.000,A,3729.1095,N,12212.4145,W,0.30,116.68,130318,,,D*7E


$GPRMC,175542.000,A,3729.1096,N,12212.4138,W,0.19,116.68,130318,,,D*7C


$GPRMC,175632.000,A,3729.1106,N,12212.4142,W,0.09,116.68,130318,,,D*7C


$GPRMC,175722.000,A,3729.1118,N,12212.4142,W,0.31,81.97,130318,,,D*47


$GPRMC,175812.000,A,3729.1146,N,12212.4182,W,0.28,276.01,130318,,,D*71


$GPRMC,175902.000,A,3729.1102,N,12212.4192,W,0.09,211.88,130318,,,D*73


$GPRMC,175952.000,A,3729.1129,N,12212.4151,W,0.30,11.10,130318,,,D*49


$GPRMC,180042.000,A,3729.1154,N,12212.4134,W,0.13,7.56,130318,,,D*76


$GPRMC,180132.000,A,3729.1146,N,12212.4143,W,0.57,277.66,130318,,,D*75


$GPRMC,180222.000,A,3729.1083,N,12212.4124,W,1.01,72.49,130318,,,D*46


$GPRMC,180312.000,A,3729.1105,N,12212.4082,W,0.42,178.72,130318,,,D*73


$GPRMC,180402.000,A,3729.1102,N,12212.4210,W,1.90,228.17,130318,,,D*70


$GPRMC,180452.000,A,3729.1162,N,12212.4244,W,0.24,318.62,130318,,,D*7C


$GPRMC,180542.000,A,3729.1104,N,12212.4155,W,0.93,71.86,130318,,,D*45


$GPRMC,180632.000,A,3729.1018,N,12212.4139,W,0.86,163.71,130318,,,D*79


$GPRMC,180722.000,A,3729.1025,N,12212.4129,W,0.32,17.64,130318,,,D*4F


$GPRMC,180812.000,A,3729.1132,N,12212.4166,W,0.37,257.14,130318,,,D*7B


$GPRMC,180902.000,A,3729.1120,N,12212.4181,W,0.51,235.97,130318,,,D*7E


$GPRMC,180952.000,A,3729.1088,N,12212.4202,W,0.35,171.80,130318,,,D*77


$GPRMC,181042.000,A,3729.1078,N,12212.4231,W,0.68,347.69,130318,,,D*79


$GPRMC,181132.000,A,3729.1106,N,12212.4183,W,0.23,317.04,130318,,,D*7C


$GPRMC,181222.000,A,3729.1096,N,12212.4181,W,1.13,145.85,130318,,,D*7A


$GPRMC,181312.000,A,3729.1049,N,12212.4137,W,0.12,119.11,130318,,,D*73


$GPRMC,181402.000,A,3729.0983,N,12212.4110,W,0.10,117.97,130318,,,D*7C


$GPRMC,181452.000,A,3729.0995,N,12212.4192,W,0.76,5.98,130318,,,D*79


$GPRMC,181542.000,A,3729.1020,N,12212.4323,W,0.64,250.63,130318,,,D*72


$GPRMC,181632.000,A,3729.1078,N,12212.4338,W,1.25,322.98,130318,,,D*75


$GPRMC,181722.000,A,3729.1126,N,12212.4335,W,0.90,351.29,130318,,,D*73


$GPRMC,181812.000,A,3729.1106,N,12212.4364,W,0.56,348.58,130318,,,D*7D


$GPRMC,181902.000,A,3729.1087,N,12212.4381,W,2.44,247.23,130318,,,D*7D


$GPRMC,181952.000,A,3729.1062,N,12212.4293,W,1.07,38.51,130318,,,D*4A


$GPRMC,182042.000,A,3729.0998,N,12212.4334,W,0.66,191.71,130318,,,D*76


$GPRMC,182132.000,A,3729.0967,N,12212.4351,W,0.69,169.36,130318,,,D*78


$GPRMC,182222.000,A,3729.0925,N,12212.4399,W,0.44,228.52,130318,,,D*73


$GPRMC,182312.000,A,3729.0885,N,12212.4366,W,0.70,146.14,130318,,,D*74


$GPRMC,182402.000,A,3729.0872,N,12212.4241,W,0.34,113.11,130318,,,D*7B


$GPRMC,182452.000,A,3729.0722,N,12212.4249,W,0.56,194.34,130318,,,D*70


$GPRMC,182542.000,A,3729.0732,N,12212.4251,W,0.47,345.41,130318,,,D*74


$GPRMC,182632.000,A,3729.0718,N,12212.4250,W,0.26,206.65,130318,,,D*7E


$GPRMC,182722.000,A,3729.0759,N,12212.4242,W,0.21,206.65,130318,,,D*7F


$GPRMC,182812.000,A,3729.0748,N,12212.4219,W,0.18,130.40,130318,,,D*76


$GPRMC,182902.000,A,3729.0769,N,12212.4199,W,0.10,354.81,130318,,,D*7B


$GPRMC,182952.000,A,3729.0740,N,12212.4217,W,0.29,354.81,130318,,,D*7A


$GPRMC,183042.000,A,3729.0749,N,12212.4183,W,0.23,126.89,130318,,,D*71


$GPRMC,183132.000,A,3729.0827,N,12212.4140,W,0.28,44.23,130318,,,D*41


$GPRMC,183222.000,A,3729.0826,N,12212.4066,W,0.82,55.66,130318,,,D*46


$GPRMC,183312.000,A,3729.0832,N,12212.4012,W,0.24,61.68,130318,,,D*47


$GPRMC,183402.000,A,3729.0796,N,12212.4002,W,0.10,190.13,130318,,,D*75


$GPRMC,183452.000,A,3729.0819,N,12212.3983,W,0.91,300.78,130318,,,D*70


$GPRMC,183542.000,A,3729.0873,N,12212.3962,W,0.32,356.23,130318,,,D*77


$GPRMC,183632.000,A,3729.0868,N,12212.3971,W,0.39,356.23,130318,,,D*70


$GPRMC,183722.000,A,3729.0931,N,12212.4075,W,0.47,340.92,130318,,,D*73


$GPRMC,183812.000,A,3729.1008,N,12212.4028,W,0.07,343.82,130318,,,D*73


$GPRMC,183902.000,A,3729.1030,N,12212.4066,W,0.46,292.52,130318,,,D*77


$GPRMC,183952.000,A,3729.1063,N,12212.4016,W,0.78,92.95,130318,,,D*47


$GPRMC,184042.000,A,3729.1118,N,12212.4029,W,0.60,335.50,130318,,,D*77


$GPRMC,184132.000,A,3729.1138,N,12212.4019,W,0.18,335.50,130318,,,D*7F


$GPRMC,184222.000,A,3729.1094,N,12212.4012,W,0.20,165.61,130318,,,D*7F


$GPRMC,184312.000,A,3729.1062,N,12212.4044,W,0.09,182.70,130318,,,D*75


$GPRMC,184402.000,A,3729.1106,N,12212.4022,W,0.66,81.85,130318,,,D*41


$GPRMC,184452.000,A,3729.1075,N,12212.3951,W,1.03,183.17,130318,,,D*71


$GPRMC,184542.000,A,3729.1024,N,12212.3935,W,0.15,187.53,130318,,,D*75


$GPRMC,184632.000,A,3729.1041,N,12212.3919,W,0.26,187.53,130318,,,D*7C


$GPRMC,184722.000,A,3729.1035,N,12212.3963,W,0.56,187.53,130318,,,D*75


$GPRMC,184812.000,A,3729.1064,N,12212.4001,W,0.11,187.53,130318,,,D*74


$GPRMC,184902.000,A,3729.1037,N,12212.3956,W,0.18,96.62,130318,,,D*44


$GPRMC,184952.000,A,3729.1013,N,12212.3978,W,0.18,188.12,130318,,,D*72


$GPRMC,185042.000,A,3729.1029,N,12212.4018,W,0.27,300.67,130318,,,D*76


$GPRMC,185132.000,A,3729.1037,N,12212.4050,W,0.71,312.01,130318,,,D*73


$GPRMC,185222.000,A,3729.1069,N,12212.4076,W,0.22,333.63,130318,,,D*7F


$GPRMC,185312.000,A,3729.0975,N,12212.4046,W,0.43,167.22,130318,,,D*7A


$GPRMC,185402.000,A,3729.1064,N,12212.4066,W,0.11,345.35,130318,,,D*75


$GPRMC,185452.000,A,3729.1108,N,12212.4063,W,0.20,23.08,130318,,,D*41


$GPRMC,185542.000,A,3729.1090,N,12212.4048,W,0.58,137.54,130318,,,D*7A


$GPRMC,185632.000,A,3729.1042,N,12212.4088,W,0.67,177.06,130318,,,D*72


$GPRMC,185722.000,A,3729.0996,N,12212.4071,W,0.23,160.97,130318,,,D*7B


$GPRMC,185812.000,A,3729.1053,N,12212.4102,W,0.30,354.02,130318,,,D*78


$GPRMC,185902.000,A,3729.1078,N,12212.4031,W,0.57,43.68,130318,,,D*48


$GPRMC,185952.000,A,3729.1052,N,12212.4020,W,0.43,40.35,130318,,,D*4B


$GPRMC,190042.000,A,3729.1012,N,12212.4035,W,0.73,11.90,130318,,,D*4F


$GPRMC,190132.000,A,3729.1003,N,12212.4101,W,0.86,187.97,130318,,,D*7C


$GPRMC,190222.000,A,3729.1105,N,12212.4075,W,0.29,33.73,130318,,,D*4A


$GPRMC,190312.000,A,3729.1108,N,12212.4063,W,0.48,198.55,130318,,,D*71


$GPRMC,190402.000,A,3729.1307,N,12212.4316,W,1.41,301.77,130318,,,D*71


$GPRMC,190452.000,A,3729.1289,N,12212.4323,W,0.56,249.40,130318,,,D*7B


$GPRMC,190459.000,A,3729.1324,N,12212.4299,W,2.23,21.40,130318,,,D*4A


$GPRMC,190506.000,A,3729.1356,N,12212.4339,W,1.27,308.70,130318,,,D*73


$GPRMC,190513.000,A,3729.1402,N,12212.4359,W,0.35,6.93,130318,,,D*75


$GPRMC,190520.000,A,3729.1409,N,12212.4358,W,0.59,32.09,130318,,,D*41


$GPRMC,190527.000,A,3729.1445,N,12212.4333,W,1.74,18.46,130318,,,D*4E


$GPRMC,190534.000,A,3729.1500,N,12212.4325,W,2.56,22.42,130318,,,D*45


$GPRMC,190541.000,A,3729.1609,N,12212.4521,W,17.67,280.76,130318,,,D*44


$GPRMC,190548.000,A,3729.1702,N,12212.5050,W,24.89,284.88,130318,,,D*40


$GPRMC,190555.000,A,3729.1806,N,12212.5634,W,23.16,281.44,130318,,,D*47


$GPRMC,190602.000,A,3729.1891,N,12212.6153,W,19.54,281.55,130318,,,D*42


$GPRMC,190609.000,A,3729.1948,N,12212.6474,W,5.45,278.87,130318,,,D*78


$GPRMC,190616.000,A,3729.1960,N,12212.6573,W,4.39,278.76,130318,,,D*7E


$GPRMC,190623.000,A,3729.2013,N,12212.6888,W,17.43,284.19,130318,,,D*4A


$GPRMC,190630.000,A,3729.2086,N,12212.7325,W,17.95,281.87,130318,,,D*40


$GPRMC,190637.000,A,3729.2126,N,12212.7580,W,4.10,283.24,130318,,,D*71


$GPRMC,190644.000,A,3729.2156,N,12212.7770,W,10.59,282.99,130318,,,D*40


$GPRMC,190651.000,A,3729.2209,N,12212.8046,W,11.45,283.59,130318,,,D*41


$GPRMC,190658.000,A,3729.2281,N,12212.8356,W,10.83,299.15,130318,,,D*42


$GPRMC,190705.000,A,3729.2479,N,12212.8384,W,16.39,21.17,130318,,,D*71


$GPRMC,190712.000,A,3729.2703,N,12212.7997,W,23.54,87.99,130318,,,D*79


$GPRMC,190719.000,A,3729.2774,N,12212.7332,W,28.75,70.04,130318,,,D*73


$GPRMC,190726.000,A,3729.2796,N,12212.6563,W,34.83,99.29,130318,,,D*7C


$GPRMC,190733.000,A,3729.2687,N,12212.5673,W,36.16,98.51,130318,,,D*78


$GPRMC,190740.000,A,3729.2577,N,12212.4739,W,38.89,97.62,130318,,,D*79


$GPRMC,190747.000,A,3729.2471,N,12212.3728,W,43.22,96.57,130318,,,D*74


$GPRMC,190754.000,A,3729.2349,N,12212.2624,W,47.12,98.51,130318,,,D*79


$GPRMC,190802.000,A,3729.2186,N,12212.1323,W,47.38,98.12,130318,,,D*7A


$GPRMC,190809.000,A,3729.2043,N,12212.0187,W,47.82,98.81,130318,,,D*7F


$GPRMC,190816.000,A,3729.1906,N,12211.9025,W,48.12,98.73,130318,,,D*72


$GPRMC,190823.000,A,3729.1759,N,12211.7882,W,47.67,99.04,130318,,,D*77


$GPRMC,190830.000,A,3729.1612,N,12211.6738,W,46.68,98.43,130318,,,D*78


$GPRMC,190837.000,A,3729.1468,N,12211.5592,W,47.43,98.88,130318,,,D*7E


$GPRMC,190844.000,A,3729.1325,N,12211.4444,W,47.39,98.93,130318,,,D*78


$GPRMC,190851.000,A,3729.1182,N,12211.3326,W,46.72,99.55,130318,,,D*72


$GPRMC,190858.000,A,3729.1003,N,12211.2189,W,48.49,103.74,130318,,,D*42


$GPRMC,190905.000,A,3729.0746,N,12211.1050,W,49.15,107.28,130318,,,D*4F


$GPRMC,190912.000,A,3729.0434,N,12210.9918,W,47.50,110.97,130318,,,D*4E


$GPRMC,190919.000,A,3729.0091,N,12210.8849,W,45.78,113.36,130318,,,D*4A


$GPRMC,190926.000,A,3728.9698,N,12210.7808,W,44.94,118.18,130318,,,D*4F


$GPRMC,190933.000,A,3728.9261,N,12210.6882,W,44.04,123.26,130318,,,D*46


$GPRMC,190940.000,A,3728.8804,N,12210.6049,W,42.27,125.64,130318,,,D*42


$GPRMC,190947.000,A,3728.8284,N,12210.5167,W,46.06,126.37,130318,,,D*4B


$GPRMC,190954.000,A,3728.7750,N,12210.4257,W,46.75,126.05,130318,,,D*4E


$GPRMC,191001.000,A,3728.7196,N,12210.3288,W,49.17,125.85,130318,,,D*4F


$GPRMC,191008.000,A,3728.6629,N,12210.2357,W,45.89,126.36,130318,,,D*46


$GPRMC,191015.000,A,3728.6106,N,12210.1458,W,45.95,125.81,130318,,,D*49


$GPRMC,191022.000,A,3728.5570,N,12210.0530,W,47.49,126.90,130318,,,D*45


$GPRMC,191029.000,A,3728.5034,N,12209.9618,W,45.82,125.56,130318,,,D*4F


$GPRMC,191036.000,A,3728.4507,N,12209.8714,W,45.79,126.47,130318,,,D*4E


$GPRMC,191043.000,A,3728.3987,N,12209.7835,W,44.54,126.35,130318,,,D*47


$GPRMC,191050.000,A,3728.3480,N,12209.6962,W,42.94,126.45,130318,,,D*40


$GPRMC,191057.000,A,3728.2978,N,12209.6117,W,43.28,126.83,130318,,,D*4A


$GPRMC,191104.000,A,3728.2484,N,12209.5279,W,42.00,126.77,130318,,,D*4B


$GPRMC,191111.000,A,3728.2016,N,12209.4489,W,40.10,127.10,130318,,,D*4B


$GPRMC,191118.000,A,3728.1562,N,12209.3724,W,39.33,126.80,130318,,,D*43


$GPRMC,191125.000,A,3728.1126,N,12209.2971,W,38.00,125.46,130318,,,D*4E


$GPRMC,191132.000,A,3728.0697,N,12209.2226,W,38.15,125.37,130318,,,D*4F


$GPRMC,191139.000,A,3728.0247,N,12209.1442,W,40.17,126.63,130318,,,D*45


$GPRMC,191146.000,A,3727.9759,N,12209.0610,W,43.14,126.65,130318,,,D*43


$GPRMC,191153.000,A,3727.9242,N,12208.9726,W,45.62,126.43,130318,,,D*47


$GPRMC,191200.000,A,3727.8681,N,12208.8769,W,50.56,126.40,130318,,,D*42


$GPRMC,191207.000,A,3727.8122,N,12208.7822,W,47.67,126.35,130318,,,D*42


$GPRMC,191214.000,A,3727.7573,N,12208.6880,W,47.71,126.81,130318,,,D*4E


$GPRMC,191221.000,A,3727.7015,N,12208.5942,W,47.78,126.44,130318,,,D*41


$GPRMC,191228.000,A,3727.6487,N,12208.5037,W,45.35,127.16,130318,,,D*40


$GPRMC,191235.000,A,3727.5971,N,12208.4147,W,45.07,126.51,130318,,,D*4F


$GPRMC,191242.000,A,3727.5468,N,12208.3288,W,42.62,126.10,130318,,,D*4C


$GPRMC,191249.000,A,3727.4963,N,12208.2425,W,44.64,125.78,130318,,,D*4D


$GPRMC,191256.000,A,3727.4476,N,12208.1609,W,37.02,127.60,130318,,,D*4A


$GPRMC,191303.000,A,3727.4067,N,12208.0933,W,33.42,126.12,130318,,,D*4C


$GPRMC,191310.000,A,3727.3651,N,12208.0232,W,38.23,126.65,130318,,,D*4C


$GPRMC,191317.000,A,3727.3171,N,12207.9420,W,41.97,127.02,130318,,,D*4C


$GPRMC,191324.000,A,3727.2687,N,12207.8604,W,41.17,125.49,130318,,,D*43


$GPRMC,191331.000,A,3727.2178,N,12207.7761,W,43.26,126.33,130318,,,D*43


$GPRMC,191338.000,A,3727.1677,N,12207.6937,W,41.46,126.22,130318,,,D*49


$GPRMC,191345.000,A,3727.1174,N,12207.6105,W,43.42,129.14,130318,,,D*42


$GPRMC,191352.000,A,3727.0589,N,12207.5294,W,46.46,135.86,130318,,,D*4C


$GPRMC,191359.000,A,3726.9923,N,12207.4559,W,47.76,140.17,130318,,,D*4C


$GPRMC,191406.000,A,3726.9207,N,12207.3810,W,47.21,140.02,130318,,,D*4D


$GPRMC,191413.000,A,3726.8506,N,12207.3068,W,47.06,140.14,130318,,,D*4B


$GPRMC,191420.000,A,3726.7837,N,12207.2363,W,44.15,140.18,130318,,,D*4F


$GPRMC,191427.000,A,3726.7198,N,12207.1695,W,40.49,140.15,130318,,,D*4B


$GPRMC,191434.000,A,3726.6610,N,12207.1073,W,41.47,139.69,130318,,,D*4B


$GPRMC,191441.000,A,3726.6019,N,12207.0455,W,34.66,140.24,130318,,,D*41


$GPRMC,191448.000,A,3726.5444,N,12206.9856,W,40.96,140.15,130318,,,D*4E


$GPRMC,191456.000,A,3726.4691,N,12206.9072,W,45.51,140.14,130318,,,D*4B


$GPRMC,191503.000,A,3726.3989,N,12206.8333,W,46.77,139.84,130318,,,D*4C


$GPRMC,191510.000,A,3726.3312,N,12206.7618,W,45.48,140.40,130318,,,D*4C


$GPRMC,191517.000,A,3726.2613,N,12206.6889,W,46.83,140.06,130318,,,D*4F


$GPRMC,191524.000,A,3726.1917,N,12206.6159,W,47.47,139.68,130318,,,D*4C


$GPRMC,191531.000,A,3726.1214,N,12206.5421,W,45.71,139.70,130318,,,D*47


$GPRMC,191538.000,A,3726.0540,N,12206.4713,W,44.06,140.39,130318,,,D*48


$GPRMC,191545.000,A,3725.9863,N,12206.4012,W,44.90,140.20,130318,,,D*45


$GPRMC,191552.000,A,3725.9169,N,12206.3286,W,47.13,140.23,130318,,,D*43


$GPRMC,191559.000,A,3725.8430,N,12206.2512,W,50.58,140.80,130318,,,D*4B


$GPRMC,191606.000,A,3725.7646,N,12206.1699,W,52.58,140.16,130318,,,D*40


$GPRMC,191613.000,A,3725.6844,N,12206.0855,W,54.02,140.16,130318,,,D*4F


$GPRMC,191620.000,A,3725.6031,N,12205.9995,W,54.31,140.04,130318,,,D*41


$GPRMC,191627.000,A,3725.5258,N,12205.9176,W,49.64,138.50,130318,,,D*4F


$GPRMC,191634.000,A,3725.4578,N,12205.8374,W,44.82,134.75,130318,,,D*46


$GPRMC,191641.000,A,3725.3969,N,12205.7549,W,46.79,132.08,130318,,,D*42


$GPRMC,191648.000,A,3725.3327,N,12205.6652,W,49.83,132.15,130318,,,D*45


$GPRMC,191655.000,A,3725.2771,N,12205.5869,W,34.21,131.68,130318,,,D*41


$GPRMC,191702.000,A,3725.2363,N,12205.5361,W,28.36,138.77,130318,,,D*4A


$GPRMC,191709.000,A,3725.1949,N,12205.5250,W,21.72,202.93,130318,,,D*4A


$GPRMC,191716.000,A,3725.1674,N,12205.5622,W,15.27,240.38,130318,,,D*44


$GPRMC,191723.000,A,3725.1693,N,12205.5761,W,0.03,293.79,130318,,,D*74


$GPRMC,191730.000,A,3725.1699,N,12205.5760,W,0.00,293.79,130318,,,D*7E


$GPRMC,191737.000,A,3725.1700,N,12205.5760,W,0.02,293.79,130318,,,D*7A


$GPRMC,191744.000,A,3725.1703,N,12205.5761,W,0.00,293.79,130318,,,D*7E


$GPRMC,191751.000,A,3725.1704,N,12205.5761,W,0.00,293.79,130318,,,D*7D


$GPRMC,191758.000,A,3725.1705,N,12205.5762,W,0.00,293.79,130318,,,D*76


$GPRMC,191805.000,A,3725.1613,N,12205.5995,W,16.74,193.08,130318,,,D*40


$GPRMC,191812.000,A,3725.1119,N,12205.5967,W,30.32,175.03,130318,,,D*43


$GPRMC,191819.000,A,3725.0525,N,12205.5900,W,29.29,174.36,130318,,,D*46


$GPRMC,191826.000,A,3724.9990,N,12205.5855,W,28.17,175.07,130318,,,D*4E


$GPRMC,191833.000,A,3724.9473,N,12205.5787,W,22.89,173.45,130318,,,D*47


$GPRMC,191840.000,A,3724.9083,N,12205.5734,W,16.76,176.33,130318,,,D*43


$GPRMC,191847.000,A,3724.8921,N,12205.5711,W,1.98,176.13,130318,,,D*77


$GPRMC,191854.000,A,3724.8922,N,12205.5708,W,0.02,176.13,130318,,,D*7C


$GPRMC,191901.000,A,3724.8838,N,12205.5696,W,9.59,185.33,130318,,,D*78


$GPRMC,191908.000,A,3724.8757,N,12205.5950,W,17.16,272.85,130318,,,D*40


$GPRMC,191915.000,A,3724.8750,N,12205.6362,W,10.15,266.66,130318,,,D*4F


$GPRMC,191922.000,A,3724.8702,N,12205.6333,W,10.31,94.06,130318,,,D*77


$GPRMC,191929.000,A,3724.8683,N,12205.6072,W,6.03,117.62,130318,,,D*7C


$GPRMC,191936.000,A,3724.8636,N,12205.6051,W,1.91,183.10,130318,,,D*79


$GPRMC,191943.000,A,3724.8593,N,12205.6056,W,2.39,183.10,130318,,,D*71


$GPRMC,191950.000,A,3724.8576,N,12205.6047,W,0.15,183.10,130318,,,D*74


$GPRMC,191957.000,A,3724.8585,N,12205.6071,W,0.01,183.10,130318,,,D*7F


$GPRMC,192004.000,A,3724.8585,N,12205.6077,W,0.02,183.10,130318,,,D*76


$GPRMC,192051.000,A,3724.8588,N,12205.6079,W,0.00,183.10,130318,,,D*77


$GPRMC,192138.000,A,3724.8588,N,12205.6079,W,0.00,183.10,130318,,,D*79


$GPRMC,192225.000,A,3724.8589,N,12205.6079,W,0.00,183.10,130318,,,D*77


$GPRMC,192312.000,A,3724.8589,N,12205.6079,W,0.00,183.10,130318,,,D*72


$GPRMC,192359.000,A,3724.8589,N,12205.6079,W,0.01,183.10,130318,,,D*7C


$GPRMC,192446.000,A,3724.8589,N,12205.6079,W,0.01,183.10,130318,,,D*75


$GPRMC,192533.000,A,3724.8590,N,12205.6079,W,0.02,183.10,130318,,,D*7D


$GPRMC,192620.000,A,3724.8592,N,12205.6078,W,0.02,183.10,130318,,,D*7F


$GPRMC,192707.000,A,3724.8593,N,12205.6078,W,0.02,183.10,130318,,,D*7A


$GPRMC,192754.000,A,3724.8594,N,12205.6077,W,0.01,183.10,130318,,,D*77


$GPRMC,192841.000,A,3724.8595,N,12205.6076,W,0.00,183.10,130318,,,D*7D


$GPRMC,192928.000,A,3724.8596,N,12205.6075,W,0.00,183.10,130318,,,D*73


$GPRMC,193015.000,A,3724.8596,N,12205.6075,W,0.00,183.10,130318,,,D*75


$GPRMC,193102.000,A,3724.8597,N,12205.6074,W,0.02,183.10,130318,,,D*70


$GPRMC,193149.000,A,3724.8597,N,12205.6073,W,0.00,183.10,130318,,,D*7A


$GPRMC,193236.000,A,3724.8597,N,12205.6072,W,0.02,183.10,130318,,,D*72


$GPRMC,193322.000,A,3724.8597,N,12205.6071,W,0.00,183.10,130318,,,D*77


$GPRMC,193409.000,A,3724.8597,N,12205.6071,W,0.02,183.10,130318,,,D*7B


$GPRMC,193456.000,A,3724.8597,N,12205.6071,W,0.01,183.10,130318,,,D*72


$GPRMC,193543.000,A,3724.8598,N,12205.6071,W,0.01,183.10,130318,,,D*78


$GPRMC,193630.000,A,3724.8599,N,12205.6071,W,0.02,183.10,130318,,,D*7D


$GPRMC,193717.000,A,3724.8599,N,12205.6071,W,0.02,183.10,130318,,,D*79


$GPRMC,193804.000,A,3724.8599,N,12205.6071,W,0.01,183.10,130318,,,D*77


$GPRMC,193851.000,A,3724.8600,N,12205.6071,W,0.02,183.10,130318,,,D*77


$GPRMC,193938.000,A,3724.8600,N,12205.6071,W,0.01,183.10,130318,,,D*7A


$GPRMC,194025.000,A,3724.8601,N,12205.6072,W,0.01,183.10,130318,,,D*7A


$GPRMC,194112.000,A,3724.8601,N,12205.6072,W,0.01,183.10,130318,,,D*7F


$GPRMC,194159.000,A,3724.8601,N,12205.6073,W,0.02,183.10,130318,,,D*72


$GPRMC,194246.000,A,3724.8602,N,12205.6074,W,0.01,183.10,130318,,,D*78


$GPRMC,194333.000,A,3724.8603,N,12205.6074,W,0.02,183.10,130318,,,D*79


$GPRMC,194420.000,A,3724.8603,N,12205.6074,W,0.01,183.10,130318,,,D*7F


$GPRMC,194507.000,A,3724.8604,N,12205.6074,W,0.02,183.10,130318,,,D*7F


$GPRMC,194554.000,A,3724.8604,N,12205.6075,W,0.01,183.10,130318,,,D*7B


$GPRMC,194641.000,A,3724.8605,N,12205.6075,W,0.00,183.10,130318,,,D*7C


$GPRMC,194728.000,A,3724.8605,N,12205.6076,W,0.02,183.10,130318,,,D*73


$GPRMC,235948.799,V,,,,,0.00,0.00,050180,,,N*47


$GPRMC,194947.000,A,3724.8519,N,12205.5717,W,1.59,81.20,130318,$GPGGA,195034.000,3724.8561,N,12205.5596,W,1,08,1.14,10

$GPRMC,195303.000,A,3725.2730,N,12205.4464,W,12.72,261.42,130318,,,A*4F


$GPRMC,195535.000,A,3725.0888,N,12205.2625,W,1.89,295.54,130318$GPGGA,195542.000,3725.0909,N,12205.2676,W,2,09,0.86,-0

$GPRMC,202530.000,A,3725.0413,N,12204.8073,W,1.10,292.68,130318,,,D*7C


$GPRMC,203710.000,A,3725.0399,N,12204.8944,W,0.89,12.34,130318,,,D*47


$GPRMC,204120.000,A,3725.0218,N,12204.8932,W,1.27,181.31,130318,,,D*77


$GPRMC,204300.000,V,,,,,0.21,104.88,130318,,,N*46


$GPRMC,204440.000,A,3725.0488,N,12204.9162,W,3.49,303.93,130318,,,D*7D


$GPRMC,204620.000,A,3725.0304,N,12204.8833,W,2.03,90.34,130318,,,D*4D


$GPRMC,204800.000,A,3725.0346,N,12204.8722,W,0.52,8.36,130318,,,D*7D


$GPRMC,204940.000,A,3725.0187,N,12204.8955,W,0.53,277.91,130318,,,D*7F


$GPRMC,205120.000,A,3725.0285,N,12204.8915,W,0.75,200.85,130318,,,D*74


$GPRMC,205300.000,A,3725.0309,N,12204.8965,W,0.22,307.66,130318,,,D*7F


$GPRMC,205440.000,A,3725.0382,N,12204.8687,W,0.97,67.71,130318,,,D*41


$GPRMC,205620.000,A,3725.0303,N,12204.8958,W,0.57,210.67,130318,,,D*78


$GPRMC,205800.000,A,3725.0097,N,12204.8784,W,1.78,132.78,130318,,,D*74


$GPRMC,205940.000,A,3725.0300,N,12204.9002,W,1.52,264.31,130318,,,D*71


$GPRMC,210120.000,A,3725.0028,N,12204.9220,W,0.78,214.24,130318,,,D*7A


$GPRMC,210300.000,A,3725.0113,N,12204.8908,W,0.50,174.68,130318,,,D*74


$GPRMC,210440.000,A,3725.0426,N,12204.8747,W,3.31,41.02,130318,,,D*4E


$GPRMC,210620.000,A,3725.0270,N,12204.8772,W,1.93,207.65,130318,,,D*72


$GPRMC,210800.000,A,3725.0333,N,12204.8867,W,1.01,310.96,130318,,,D*73


$GPRMC,210940.000,A,3725.0261,N,12204.9025,W,1.42,223.70,130318,,,D*71


$GPRMC,211120.000,A,3725.0150,N,12204.8826,W,0.57,211.84,130318,,,D*7A


$GPRMC,211300.000,A,3725.0448,N,12204.8482,W,3.67,58.71,130318,,,D*41


$GPRMC,211440.000,A,3725.0234,N,12204.8880,W,0.53,141.59,130318,,,D*76


$GPRMC,211620.000,A,3725.0896,N,12204.7576,W,5.59,42.82,130318,,,D*40


$GPRMC,211800.000,A,3724.9979,N,12204.9128,W,1.53,224.73,130318,,,D*77


$GPRMC,211940.000,A,3725.0279,N,12204.8927,W,0.90,56.96,130318,,,D*45


$GPRMC,212120.000,A,3725.0411,N,12204.8867,W,1.21,281.62,130318,,,D*7D


$GPRMC,212300.000,A,3725.0157,N,12204.8875,W,0.37,178.38,130318,,,D*75


$GPRMC,212440.000,A,3725.0279,N,12204.8883,W,0.20,69.16,130318,,,D*4B


$GPRMC,212620.000,A,3725.0127,N,12204.9661,W,3.40,277.82,130318,,,D*71


$GPRMC,212800.000,A,3725.0202,N,12204.8802,W,1.75,71.17,130318,,,D*4F


$GPRMC,212940.000,A,3725.0037,N,12204.9339,W,0.69,250.93,130318,,,D*7D


$GPRMC,213120.000,A,3725.0321,N,12204.9024,W,0.28,290.23,130318,,,D*7B


$GPRMC,213300.000,A,3725.1362,N,12204.7821,W,4.13,40.05,130318,,,D*49


$GPRMC,213440.000,A,3725.1201,N,12204.8506,W,0.62,356.29,130318,,,D*71


$GPRMC,213620.000,A,3725.0059,N,12204.9128,W,0.65,231.69,130318,,,D*71


$GPRMC,213710.000,A,3725.0062,N,12204.9122,W,0.06,68.39,130318,$GPGGA,213800.000,3725.0062,N,12204.9121,W,2,09,0.87,-2

$GPRMC,214238.000,A,3725.0160,N,12204.9199,W,9.66,90.54,130318,$GPGGA,214245.000,3725.0124,N,12204.9078,W,2,10,0.79,2.

$GPRMC,214259.000,A,3725.0009,N,12204.9224,W,13.50,274.97,13031$GPGGA,214306.000,3725.0035,N,12204.9693,W,2,10,0.79,8.

$GPRMC,221422.000,A,3725.1169,N,12205.2743,W,2.52,229.95,130318$GPGGA,221512.000,3725.0951,N,12205.2713,W,2,09,0.88,-0

$GPRMC,222303.000,A,3726.3491,N,12206.7585,W,51.44,319.14,13031$GPGGA,222310.000,3726.4257,N,12206.8384,W,2,09,0.92,1.

$GPRMC,222330.000,A,3726.6452,N,12207.0669,W,49.10,320.51,13031$GPGGA,222337.000,3726.7095,N,12207.1351,W,2,09,0.92,-3

$GPRMC,223009.000,A,3729.2604,N,12212.3653,W,51.61,279.04,13031$GPGGA,223016.000,3729.2768,N,12212.4842,W,2,11,0.77,-6

$GPRMC,223023.000,A,3729.2995,N,12212.6073,W,53.27,285.25,13031$GPGGA,223030.000,3729.3296,N,12212.7315,W,2,11,0.77,-3

$GPRMC,223037.000,A,3729.3666,N,12212.8530,W,53.70,293.18,13031$GPGGA,223044.000,3729.4107,N,12212.9696,W,2,11,0.77,0.

$GPRMC,223058.000,A,3729.5125,N,12213.2009,W,57.10,299.11,13031$GPGGA,223105.000,3729.5643,N,12213.3171,W,2,11,0.77,-4

$GPRMC,223112.000,A,3729.6163,N,12213.4355,W,56.80,297.30,13031$GPGGA,223119.000,3729.6626,N,12213.5618,W,2,11,0.77,-1

$GPRMC,223133.000,A,3729.7372,N,12213.8162,W,55.58,290.15,13031$GPGGA,223140.000,3729.7740,N,12213.9466,W,2,11,0.77,-8

$GPRMC,223147.000,A,3729.8106,N,12214.0755,W,54.90,289.84,13031$GPGGA,223154.000,3729.8550,N,12214.1998,W,2,11,0.77,-4

$GPRMC,223208.000,A,3729.9931,N,12214.4095,W,53.09,318.36,13031$GPGGA,223215.000,3730.0662,N,12214.4935,W,2,11,0.77,-8

$GPRMC,223222.000,A,3730.1386,N,12214.5752,W,50.65,317.78,13031$GPGGA,223229.000,3730.2099,N,12214.6559,W,2,11,0.77,-1

$GPRMC,223243.000,A,3730.3582,N,12214.8206,W,52.05,317.83,13031$GPGGA,223250.000,3730.4333,N,12214.9058,W,2,11,0.77,-1

$GPRMC,223257.000,A,3730.5094,N,12214.9907,W,53.44,317.70,13031$GPGGA,223304.000,3730.5848,N,12215.0763,W,2,11,0.77,-1

$GPRMC,223318.000,A,3730.7350,N,12215.2474,W,49.00,317.45,13031$GPGGA,223325.000,3730.7859,N,12215.3049,W,2,11,0.77,-1

$GPRMC,223339.000,A,3730.8666,N,12215.3975,W,21.41,317.54,13031$GPGGA,223346.000,3730.8965,N,12215.4312,W,2,12,0.72,-9

$GPRMC,223353.000,A,3730.9279,N,12215.4659,W,21.07,318.78,13031$GPGGA,223400.000,3730.9616,N,12215.5035,W,2,12,0.72,-6

$GPRMC,223407.000,A,3730.9924,N,12215.5380,W,20.95,318.64,13031$GPGGA,223414.000,3731.0223,N,12215.5723,W,2,12,0.72,-7

$GPRMC,223428.000,A,3731.0830,N,12215.6408,W,18.27,318.05,13031$GPGGA,223435.000,3731.1062,N,12215.6680,W,2,12,0.72,-8

$GPRMC,223442.000,A,3731.1341,N,12215.6995,W,20.51,317.77,13031$GPGGA,223449.000,3731.1644,N,12215.7335,W,2,12,0.72,-8

$GPRMC,223503.000,A,3731.2715,N,12215.8486,W,40.80,317.99,13031$GPGGA,223510.000,3731.3306,N,12215.9153,W,2,12,0.72,-9

$GPRMC,223517.000,A,3731.3889,N,12215.9821,W,40.15,317.99,13031$GPGGA,223524.000,3731.4455,N,12216.0404,W,2,12,0.72,-6

$GPRMC,223538.000,A,3731.5677,N,12216.1062,W,31.36,7.68,130318,$GPGGA,223545.000,3731.6154,N,12216.1096,W,2,12,0.72,-2

$GPRMC,223552.000,A,3731.6262,N,12216.1189,W,0.05,329.06,130318$GPGGA,223559.000,3731.6258,N,12216.1185,W,2,12,0.72,-1

$GPRMC,223613.000,A,3731.6449,N,12216.1057,W,20.78,45.66,130318$GPGGA,223620.000,3731.6757,N,12216.0626,W,2,12,0.72,-2

$GPRMC,223627.000,A,3731.6960,N,12216.0277,W,10.02,65.45,130318$GPGGA,223634.000,3731.6989,N,12216.0163,W,2,12,0.71,-4

$GPRMC,223648.000,A,3731.6992,N,12216.0129,W,0.03,71.34,130318,$GPGGA,223655.000,3731.6994,N,12216.0113,W,2,12,0.71,-6

$GPRMC,223702.000,A,3731.7111,N,12215.9905,W,12.93,11.68,130318$GPGGA,223709.000,3731.7405,N,12216.0042,W,2,12,0.72,-5

$GPRMC,223723.000,A,3731.7629,N,12216.0072,W,10.42,100.18,13031$GPGGA,223730.000,3731.7606,N,12215.9837,W,2,12,0.72,-4

$GPRMC,223737.000,A,3731.7608,N,12215.9766,W,0.10,77.03,130318,$GPGGA,223744.000,3731.7689,N,12215.9735,W,2,12,0.72,-4

$GPRMC,223758.000,A,3731.7760,N,12215.9927,W,7.06,268.26,130318$GPGGA,223805.000,3731.7768,N,12216.0084,W,2,11,0.77,-3

$GPRMC,223812.000,A,3731.7809,N,12216.0214,W,4.65,359.17,130318$GPGGA,223819.000,3731.7862,N,12216.0177,W,2,11,0.77,-2

$GPRMC,223833.000,A,3731.7856,N,12216.0046,W,0.03,89.40,130318,$GPGGA,223840.000,3731.7855,N,12216.0047,W,2,11,0.75,-5

$GPRMC,223847.000,A,3731.7861,N,12215.9931,W,7.55,92.78,130318,$GPGGA,223854.000,3731.7866,N,12215.9806,W,2,11,0.77,-5

$GPRMC,223908.000,A,3731.8033,N,12215.9762,W,5.87,353.90,130318$GPGGA,223915.000,3731.8103,N,12215.9838,W,2,11,0.77,-4

$GPRMC,223922.000,A,3731.8045,N,12215.9975,W,3.87,231.94,130318$GPGGA,223929.000,3731.8023,N,12216.0017,W,2,11,0.75,-3

$GPRMC,223943.000,A,3731.7986,N,12215.9992,W,3.32,114.19,130318$GPGGA,223950.000,3731.7977,N,12215.9853,W,2,11,0.77,-4

$GPRMC,223957.000,A,3731.7979,N,12215.9849,W,1.24,230.42,130318$GPGGA,224004.000,3731.7959,N,12215.9859,W,2,11,0.75,-4

$GPRMC,224018.000,A,3731.7952,N,12215.9856,W,0.12,171.22,130318$GPGGA,224025.000,3731.7950,N,12215.9857,W,2,11,0.75,-5

$GPRMC,224032.000,A,3731.7951,N,12215.9861,W,0.24,171.22,130318$GPGGA,224119.000,3731.7906,N,12215.9824,W,2,10,0.81,-4

$GPRMC,224340.000,A,3731.7640,N,12215.9609,W,0.08,66.34,130318,$GPGGA,224427.000,3731.7639,N,12215.9609,W,2,12,0.72,-6

$GPRMC,224514.000,A,3731.7639,N,12215.9609,W,0.01,66.34,130318,$GPGGA,224601.000,3731.7638,N,12215.9606,W,2,12,0.72,-6

$GPRMC,224648.000,A,3731.7637,N,12215.9605,W,0.02,66.34,130318,$GPGGA,224735.000,3731.7635,N,12215.9604,W,2,12,0.72,-6

$GPRMC,224822.000,A,3731.7633,N,12215.9602,W,0.02,66.34,130318,$GPGGA,224909.000,3731.7632,N,12215.9601,W,2,12,0.72,-6

$GPRMC,225043.000,A,3731.7796,N,12215.9307,W,2.05,97.22,130318,$GPGGA,225130.000,3731.7766,N,12215.9147,W,2,12,0.71,-0

$GPRMC,225217.000,A,3731.7983,N,12215.8966,W,2.24,7.11,130318,,$GPGGA,225304.000,3731.8121,N,12215.8788,W,2,11,0.77,-2

$GPRMC,225438.000,A,3731.8338,N,12215.8428,W,2.01,30.32,130318,$GPGGA,225525.000,3731.8288,N,12215.8194,W,2,12,0.71,-2

$GPRMC,225612.000,A,3731.8413,N,12215.7902,W,1.62,19.68,130318,$GPGGA,225659.000,3731.8402,N,12215.7924,W,2,11,0.75,-1

$GPRMC,225833.000,A,3731.8387,N,12215.7491,W,0.72,69.10,130318,$GPGGA,225920.000,3731.8375,N,12215.7524,W,2,12,0.72,-2

$GPRMC,230007.000,A,3731.8403,N,12215.7431,W,0.54,67.36,130318,$GPGGA,230054.000,3731.8373,N,12215.7431,W,2,12,0.71,-1

$GPRMC,230315.000,A,3731.8296,N,12215.7470,W,1.42,173.10,130318,,,D*76


$GPRMC,230623.000,A,3731.8112,N,12215.8024,W,2.86,154.60,130318$GPGGA,230710.000,3731.8050,N,12215.8143,W,2,06,1.03,10

$GPRMC,230757.000,A,3731.8059,N,12215.8234,W,1.46,176.59,130318,,,D*70


$GPRMC,231018.000,A,3731.7836,N,12215.8485,W,0.84,174.17,130318$GPGGA,231105.000,3731.8076,N,12215.8398,W,2,06,1.03,18

$GPRMC,231152.000,A,3731.8096,N,12215.8481,W,0.48,217.74,130318,,,D*7D


$GPRMC,231413.000,A,3731.8167,N,12215.8114,W,0.59,61.69,130318,$GPGGA,231500.000,3731.8202,N,12215.8078,W,2,05,1.28,94

$GPRMC,231547.000,A,3731.8174,N,12215.8035,W,0.54,11.91,130318,,,D*49


$GPRMC,231808.000,A,3731.8317,N,12215.7952,W,0.14,296.37,130318$GPGGA,231855.000,3731.8237,N,12215.8016,W,2,05,1.34,83

$GPRMC,231942.000,A,3731.8103,N,12215.8013,W,1.25,118.79,130318,,,D*7D


$GPRMC,232250.000,A,3731.8085,N,12215.8183,W,0.43,48.28,130318,,,D*40


$GPRMC,232424.000,A,3731.8131,N,12215.8160,W,1.13,142.58,130318,,,D*7E


$GPRMC,232645.000,A,3731.8191,N,12215.8024,W,0.07,51.48,130318,,,D*46


$GPRMC,232819.000,A,3731.8149,N,12215.7989,W,0.33,163.46,130318,,,D*7C


$GPRMC,233040.000,A,3731.8177,N,12215.8098,W,0.27,26.91,130318,,,D*4D


$GPRMC,233214.000,A,3731.8178,N,12215.8224,W,0.05,356.78,130318,,,D*77


$GPRMC,233435.000,A,3731.8170,N,12215.8133,W,0.88,44.48,130318,,,D*49


$GPRMC,233830.000,A,3731.8132,N,12215.8047,W,0.64,109.20,130318,,,D*70


$GPRMC,234004.000,A,3731.8100,N,12215.8010,W,0.74,233.79,130318,,,D*7C


$GPRMC,234225.000,A,3731.8111,N,12215.8109,W,0.55,344.10,130318,,,D*79


$GPRMC,234533.000,A,3731.8221,N,12215.8104,W,0.09,348.21,130318$GPGGA,234620.000,3731.8133,N,12215.8072,W,2,07,1.20,77

$GPRMC,234707.000,A,3731.8197,N,12215.8029,W,0.22,19.13,130318,,,D*49


$GPRMC,234928.000,A,3731.8142,N,12215.8115,W,0.16,352.54,130318$GPGGA,235015.000,3731.8153,N,12215.8104,W,2,07,1.20,83

$GPRMC,235102.000,A,3731.8251,N,12215.8059,W,1.02,24.95,130318,,,D*46


$GPRMC,235323.000,A,3731.8219,N,12215.8145,W,0.34,174.74,130318$GPGGA,235410.000,3731.8058,N,12215.8213,W,2,07,1.21,88

$GPRMC,235457.000,A,3731.8094,N,12215.8167,W,0.16,207.52,130318,,,D*78


$GPRMC,235718.000,A,3731.8173,N,12215.8086,W,0.21,24.46,130318,$GPGGA,235805.000,3731.8184,N,12215.8073,W,2,08,1.18,91

$GPRMC,000113.000,A,3731.8149,N,12215.8081,W,0.87,200.95,140318$GPGGA,000200.000,3731.8090,N,12215.8116,W,2,07,1.23,94

$GPRMC,000247.000,A,3731.8178,N,12215.8105,W,0.62,9.18,140318,,,D*7A


$GPRMC,001258.000,A,3731.7616,N,12215.8195,W,0.05,219.14,140318$GPGGA,001345.000,3731.7571,N,12215.8205,W,2,09,0.90,96

$GPRMC,001653.000,A,3731.8577,N,12215.7451,W,0.76,7.99,140318,,$GPGGA,001740.000,3731.8598,N,12215.7407,W,2,10,0.86,95

$GPRMC,002443.000,A,3731.8722,N,12215.7485,W,0.04,55.61,140318,$GPGGA,002530.000,3731.8583,N,12215.7748,W,2,08,1.13,73

$GPRMC,003628.000,A,3731.6933,N,12216.0608,W,27.31,238.02,14031$GPGGA,003715.000,3731.7496,N,12216.3858,W,2,10,0.82,5.

$GPRMC,010257.000,A,3732.7429,N,12216.5206,W,0.01,358.90,140318$GPGGA,010304.000,3732.7429,N,12216.5206,W,2,10,0.81,-4

$GPRMC,010503.000,A,3732.7425,N,12216.5205,W,0.03,358.90,140318$GPGGA,010510.000,3732.7425,N,12216.5204,W,2,11,0.74,-4

$GPRMC,010524.000,A,3732.7424,N,12216.5204,W,0.04,358.90,140318$GPGGA,010531.000,3732.7424,N,12216.5203,W,2,11,0.74,-4

$GPRMC,010538.000,A,3732.7424,N,12216.5203,W,0.01,358.90,140318$GPGGA,010545.000,3732.7424,N,12216.5203,W,2,11,0.74,-3

$GPRMC,010552.000,A,3732.7424,N,12216.5203,W,0.00,358.90,140318$GPGGA,010559.000,3732.7423,N,12216.5203,W,2,11,0.74,-3

$GPRMC,010613.000,A,3732.7423,N,12216.5203,W,0.00,358.90,140318$GPGGA,010620.000,3732.7423,N,12216.5203,W,2,11,0.74,-3

$GPRMC,010627.000,A,3732.7423,N,12216.5203,W,0.02,358.90,140318$GPGGA,010634.000,3732.7423,N,12216.5203,W,2,11,0.74,-3

$GPRMC,010648.000,A,3732.7422,N,12216.5203,W,0.06,358.90,140318$GPGGA,010655.000,3732.7422,N,12216.5203,W,2,11,0.74,-3

$GPRMC,010702.000,A,3732.7422,N,12216.5203,W,0.01,358.90,140318$GPGGA,010709.000,3732.7421,N,12216.5203,W,2,11,0.74,-3

$GPRMC,010723.000,A,3732.7421,N,12216.5203,W,0.03,358.90,140318$GPGGA,010730.000,3732.7421,N,12216.5203,W,2,10,0.80,-3

$GPRMC,010758.000,A,3732.7420,N,12216.5203,W,0.00,358.90,140318$GPGGA,010805.000,3732.7420,N,12216.5203,W,2,11,0.74,-3

$GPRMC,010812.000,A,3732.7420,N,12216.5203,W,0.01,358.90,140318$GPGGA,010819.000,3732.7420,N,12216.5203,W,2,11,0.74,-3

$GPRMC,010944.000,A,3732.7419,N,12216.5203,W,0.01,358.90,140318$GPGGA,011034.000,3732.7418,N,12216.5203,W,2,09,0.91,-3

$GPRMC,011304.000,A,3732.7416,N,12216.5204,W,0.01,358.90,140318$GPGGA,011354.000,3732.7417,N,12216.5205,W,2,10,0.79,-3

$GPRMC,011624.000,A,3732.7415,N,12216.5205,W,0.02,358.90,140318$GPGGA,011714.000,3732.7413,N,12216.5204,W,2,11,0.74,-3

$GPRMC,011804.000,A,3732.7412,N,12216.5203,W,0.01,358.90,140318$GPGGA,011854.000,3732.7411,N,12216.5202,W,2,11,0.74,-2

$GPRMC,011944.000,A,3732.7411,N,12216.5202,W,0.01,358.90,140318$GPGGA,012034.000,3732.7410,N,12216.5201,W,2,11,0.74,-2

$GPRMC,012124.000,A,3732.7410,N,12216.5201,W,0.02,358.90,140318$GPGGA,012214.000,3732.7410,N,12216.5200,W,2,11,0.74,-2

$GPRMC,012304.000,A,3732.7391,N,12216.5257,W,1.20,82.81,140318,$GPGGA,012354.000,3732.7374,N,12216.5236,W,2,11,0.73,-3

$GPRMC,012444.000,A,3732.8393,N,12216.5136,W,21.07,13.85,140318$GPGGA,012451.000,3732.8790,N,12216.5154,W,2,11,0.73,0.

$GPRMC,012458.000,A,3732.9158,N,12216.5397,W,20.21,318.40,14031$GPGGA,012505.000,3732.9441,N,12216.5832,W,2,11,0.73,3.

$GPRMC,012512.000,A,3732.9753,N,12216.6348,W,25.72,307.17,14031$GPGGA,012519.000,3733.0054,N,12216.6845,W,2,11,0.73,1.

$GPRMC,012533.000,A,3733.0724,N,12216.7414,W,16.45,356.77,14031$GPGGA,012540.000,3733.0911,N,12216.7401,W,2,11,0.73,0.

$GPRMC,012547.000,A,3733.0996,N,12216.7759,W,16.29,290.53,14031$GPGGA,012554.000,3733.1122,N,12216.8015,W,2,11,0.73,1.

$GPRMC,012608.000,A,3733.1150,N,12216.8073,W,9.13,301.48,140318$GPGGA,012615.000,3733.1175,N,12216.8359,W,2,11,0.73,2.

$GPRMC,012622.000,A,3733.0833,N,12216.8704,W,23.90,218.66,14031$GPGGA,012629.000,3733.0390,N,12216.9152,W,2,11,0.73,4.

$GPRMC,012643.000,A,3732.9308,N,12217.0072,W,34.80,199.13,14031$GPGGA,012650.000,3732.8720,N,12217.0325,W,2,11,0.73,6.

$GPRMC,012657.000,A,3732.8220,N,12217.0521,W,25.01,199.18,14031$GPGGA,012704.000,3732.7878,N,12217.0863,W,2,11,0.73,1.

$GPRMC,012718.000,A,3732.8146,N,12217.1417,W,23.80,321.34,14031$GPGGA,012725.000,3732.8540,N,12217.1795,W,2,11,0.73,0.

$GPRMC,012732.000,A,3732.8920,N,12217.2158,W,24.99,321.85,14031$GPGGA,012739.000,3732.9300,N,12217.2545,W,2,11,0.73,1.

$GPRMC,012753.000,A,3732.9646,N,12217.2853,W,0.05,317.46,140318$GPGGA,012800.000,3732.9668,N,12217.2861,W,2,10,0.79,-0

$GPRMC,012814.000,A,3733.0267,N,12217.3398,W,19.53,330.95,14031$GPGGA,012821.000,3733.0507,N,12217.3505,W,2,11,0.73,-0

$GPRMC,012828.000,A,3733.0640,N,12217.3544,W,4.34,344.31,140318$GPGGA,012835.000,3733.0718,N,12217.3567,W,2,11,0.73,-0

$GPRMC,012842.000,A,3733.0987,N,12217.3645,W,17.95,343.32,14031$GPGGA,012849.000,3733.1366,N,12217.3916,W,2,11,0.73,-1

$GPRMC,012903.000,A,3733.2164,N,12217.4610,W,17.81,324.99,14031$GPGGA,012910.000,3733.2298,N,12217.4751,W,2,11,0.73,4.

$GPRMC,012917.000,A,3733.2392,N,12217.4852,W,11.52,325.28,14031$GPGGA,012924.000,3733.2657,N,12217.5106,W,2,11,0.73,6.

$GPRMC,012938.000,A,3733.3006,N,12217.5525,W,3.39,327.95,140318$GPGGA,012945.000,3733.3074,N,12217.5537,W,2,11,0.73,7.

$GPRMC,012952.000,A,3733.3156,N,12217.5600,W,2.67,323.97,140318$GPGGA,012959.000,3733.3215,N,12217.5664,W,2,11,0.73,8.

$GPRMC,013013.000,A,3733.3310,N,12217.5731,W,3.78,313.40,140318$GPGGA,013020.000,3733.3395,N,12217.5838,W,2,11,0.73,7.

$GPRMC,013027.000,A,3733.3428,N,12217.5953,W,1.95,236.60,140318$GPGGA,013034.000,3733.3425,N,12217.5964,W,2,11,0.73,6.

$GPRMC,013048.000,A,3733.3425,N,12217.5964,W,0.00,236.60,140318$GPGGA,013055.000,3733.3427,N,12217.5963,W,2,11,0.73,6.

$GPRMC,013102.000,A,3733.3442,N,12217.5944,W,2.77,23.86,140318,$GPGGA,013140.000,3733.3580,N,12217.5720,W,2,11,0.73,-1

$GPRMC,013230.000,A,3733.3557,N,12217.5688,W,0.86,64.85,140318,$GPGGA,013320.000,3733.3558,N,12217.5714,W,2,11,0.73,-3

$GPRMC,013410.000,A,3733.3507,N,12217.5748,W,0.60,9.87,140318,,$GPGGA,013500.000,3733.3579,N,12217.5720,W,2,09,0.88,-2

$GPRMC,014820.000,A,3733.3605,N,12217.5734,W,0.17,213.12,140318,,,D*7A


$GPRMC,020140.000,A,3733.3618,N,12217.5718,W,0.19,270.81,140318,,,D*71


$GPRMC,020910.000,A,3733.3563,N,12217.5760,W,0.58,178.60,140318,,,D*7D


$GPRMC,021320.000,A,3733.3552,N,12217.5753,W,0.97,219.88,140318,,,D*76


$GPRMC,022000.000,A,3733.3626,N,12217.5779,W,0.65,135.46,140318,,,D*7E


$GPRMC,022320.000,A,3733.3591,N,12217.5722,W,0.52,256.32,140318,,,D*7F


$GPRMC,022500.000,A,3733.3610,N,12217.5733,W,0.56,242.49,140318,,,D*7C


$GPRMC,022640.000,A,3733.3342,N,12217.5830,W,1.15,200.77,140318,,,D*78


$GPRMC,022820.000,A,3733.3555,N,12217.5754,W,0.40,299.24,140318,,,D*7A


$GPRMC,023000.000,A,3733.3620,N,12217.5794,W,0.91,154.91,140318,,,D*7C


$GPRMC,023500.000,A,3733.3638,N,12217.5735,W,0.53,340.04,140318,,,D*7E


$GPRMC,023640.000,A,3733.3655,N,12217.5711,W,1.00,352.87,140318,,,D*7B


$GPRMC,023820.000,A,3733.3592,N,12217.5741,W,0.61,254.21,140318,,,D*73


$GPRMC,024000.000,A,3733.3624,N,12217.5686,W,1.01,271.48,140318,,,D*75


$GPRMC,024140.000,A,3733.3639,N,12217.5747,W,0.34,63.61,140318,,,D*4D


$GPRMC,024320.000,A,3733.3609,N,12217.5728,W,0.52,317.73,140318,,,D*70


$GPRMC,024500.000,A,3733.3592,N,12217.5696,W,0.35,214.72,140318,,,D*73


$GPRMC,024640.000,A,3733.3669,N,12217.5756,W,0.18,99.09,140318,,,D*4A


$GPRMC,024820.000,A,3733.3586,N,12217.5743,W,0.16,75.81,140318,,,D*48


$GPRMC,025000.000,A,3733.3627,N,12217.5746,W,0.57,214.12,140318,,,D*74


$GPRMC,025140.000,A,3733.3576,N,12217.5776,W,0.37,204.81,140318,,,D*78


$GPRMC,025320.000,A,3733.3590,N,12217.5752,W,0.22,207.92,140318,,,D*77


$GPRMC,025500.000,A,3733.3628,N,12217.5751,W,0.68,64.11,140318,,,D*42


$GPRMC,025640.000,A,3733.3598,N,12217.5750,W,0.33,218.93,140318,,,D*71


$GPRMC,025820.000,A,3733.3635,N,12217.5734,W,0.74,338.67,140318,,,D*74


$GPRMC,030000.000,A,3733.3731,N,12217.5784,W,1.40,289.86,140318,,,D*76


$GPRMC,030140.000,A,3733.3649,N,12217.5761,W,1.18,332.61,140318,,,D*73


$GPRMC,030320.000,A,3733.3621,N,12217.5757,W,0.33,249.12,140318,,,D*7D


$GPRMC,030500.000,A,3733.3578,N,12217.5748,W,1.10,255.25,140318,,,D*71


$GPRMC,030640.000,A,3733.3460,N,12217.5780,W,0.47,326.94,140318,,,D*76


$GPRMC,030820.000,A,3733.3427,N,12217.5891,W,1.75,290.36,140318,,,D*76


$GPRMC,031000.000,A,3733.3435,N,12217.5892,W,1.06,146.37,140318,,,D*70


$GPRMC,031140.000,A,3733.0780,N,12217.3609,W,9.36,172.10,140318,,,D*78


$GPRMC,031320.000,A,3732.7865,N,12217.1174,W,0.37,144.89,140318,,,D*7C


$GPRMC,031500.000,A,3733.0990,N,12216.7755,W,19.40,117.80,140318,,,D*40


$GPRMC,031640.000,A,3732.7350,N,12216.5282,W,2.11,79.92,140318,,,D*4E


$GPRMC,031820.000,A,3732.7412,N,12216.5252,W,0.30,334.10,140318,,,D*7B


$GPRMC,032000.000,A,3732.7445,N,12216.5212,W,0.22,3.37,140318,,,D*75


$GPRMC,032140.000,A,3732.7366,N,12216.5211,W,0.11,187.97,140318,,,D*72
