
$GPRMC,163433.291,V,,,,,0.00,0.00,160318,,,N*4A

$GPRMC,163440.291,V,,,,,0.00,0.00,160318,,,N*4E

$GPRMC,163447.291,V,,,,,0.00,0.00,160318,,,N*49

$GPRMC,163454.291,V,,,,,0.00,0.00,160318,,,N*4B

$GPRMC,163501.291,V,,,,,0.00,0.00,160318,,,N*4A

$GPRMC,163508.291,V,,,,,0.00,0.00,160318,,,N*43

$GPRMC,163515.290,V,,,,,0.00,225.64,160318,,,N*49

$GPRMC,163522.290,V,,,,,0.02,45.65,160318,,,N*7A

$GPRMC,163529.290,V,,,,,0.05,46.37,160318,,,N*72

$GPRMC,163536.290,V,,,,,0.04,307.83,160318,,,N*44

$GPRMC,163543.290,V,,,,,0.13,50.05,160318,,,N*7F

$GPRMC,163550.290,V,,,,,0.10,50.16,160318,,,N*7C

$GPRMC,163557.291,V,,,,,0.08,31.25,160318,,,N*74

$GPRMC,163605.291,V,,,,,0.06,351.70,160318,,,N*4B

$GPRMC,163612.290,V,,,,,0.48,219.45,160318,,,N*4D

$GPRMC,163619.290,V,,,,,0.50,181.04,160318,,,N*48

$GPRMC,163626.290,V,,,,,0.64,204.31,160318,,,N*4B

$GPRMC,163633.290,V,,,,,0.70,205.32,160318,,,N*48

$GPRMC,163640.290,V,,,,,0.99,205.63,160318,,,N*4F

$GPRMC,163647.290,V,,,,,0.72,202.70,160318,,,N*48

$GPRMC,163654.290,V,,,,,0.74,188.05,160318,,,N*4F

$GPRMC,163701.290,V,,,,,1.27,173.14,160318,,,N*4D

$GPRMC,163708.290,V,,,,,1.18,179.83,160318,,,N*4C

$GPRMC,163715.290,V,,,,,1.03,178.59,160318,,,N*4C

$GPRMC,163723.290,V,,,,,0.48,177.32,160318,,,N*45

$GPRMC,163730.290,V,,,,,0.20,42.58,160318,,,N*72

$GPRMC,163737.290,V,,,,,0.20,342.21,160318,,,N*48

$GPRMC,163744.290,V,,,,,0.12,314.96,160318,,,N*42

$GPRMC,163751.290,V,,,,,0.38,278.18,160318,,,N*43

$GPRMC,163758.290,V,,,,,0.43,252.48,160318,,,N*4B

$GPRMC,163805.290,V,,,,,0.29,239.93,160318,,,N*4B

$GPRMC,163812.290,V,,,,,0.22,36.80,160318,,,N*79

$GPRMC,163819.290,V,,,,,0.49,17.76,160318,,,N*75

$GPRMC,163826.290,V,,,,,0.32,38.79,160318,,,N*77

$GPRMC,163833.290,V,,,,,0.42,12.04,160318,,,N*76

$GPRMC,163840.290,V,,,,,0.54,335.55,160318,,,N*47

$GPRMC,163847.290,V,,,,,0.99,340.50,160318,,,N*46

$GPRMC,163854.290,V,,,,,1.07,330.97,160318,,,N*4E

$GPRMC,163901.290,V,,,,,1.33,324.61,160318,,,N*44

$GPRMC,163908.290,V,,,,,1.68,328.29,160318,,,N*43

$GPRMC,163915.290,V,,,,,1.49,324.26,160318,,,N*4F

$GPRMC,163924.000,V,,,,,2.14,352.75,160318,,,N*4A

$GPRMC,163931.000,V,,,,,1.44,65.47,160318,,,N*7E

$GPRMC,163938.000,V,,,,,1.61,40.14,160318,,,N*71

$GPRMC,163945.000,V,,,,,1.32,31.58,160318,,,N*73

$GPRMC,163952.000,V,,,,,1.31,16.67,160318,,,N*7F

$GPRMC,163959.000,V,,,,,0.90,43.83,160318,,,N*74

$GPRMC,164006.000,V,,,,,0.46,353.64,160318,,,N*40

$GPRMC,164013.000,V,,,,,0.46,87.90,160318,,,N*75

$GPRMC,164020.000,V,,,,,0.41,205.27,160318,,,N*46

$GPRMC,164028.000,V,,,,,1.52,160.21,160318,,,N*4B

$GPRMC,164035.000,V,,,,,0.21,277.95,160318,,,N*48

$GPRMC,164042.000,V,,,,,0.28,290.16,160318,,,N*43

$GPRMC,164049.000,V,,,,,0.39,180.51,160318,,,N*49

$GPRMC,164056.000,V,,,,,0.76,186.55,160318,,,N*4E

$GPRMC,164103.000,V,,,,,0.93,187.34,160318,,,N*42

$GPRMC,164110.000,V,,,,,0.40,149.64,160318,,,N*49

$GPRMC,164117.000,V,,,,,0.18,23.68,160318,,,N*72

$GPRMC,164124.000,V,,,,,0.45,337.58,160318,,,N*4F

$GPRMC,164131.000,V,,,,,0.30,307.33,160318,,,N*47

$GPRMC,164138.000,V,,,,,0.28,317.69,160318,,,N*49

$GPRMC,164145.000,V,,,,,0.74,211.09,160318,,,N*4B

$GPRMC,164152.000,V,,,,,0.65,313.24,160318,,,N*41

$GPRMC,164159.000,V,,,,,0.23,207.17,160318,,,N*4C

$GPRMC,164206.000,V,,,,,0.39,291.76,160318,,,N*46

$GPRMC,164213.000,V,,,,,0.40,224.07,160318,,,N*44

$GPRMC,164220.000,V,,,,,0.25,310.01,160318,,,N*47

$GPRMC,164227.000,V,,,,,0.38,154.21,160318,,,N*4C

$GPRMC,164234.000,V,,,,,0.50,192.09,160318,,,N*40

$GPRMC,164241.000,V,,,,,0.84,167.48,160318,,,N*44

$GPRMC,164248.000,V,,,,,0.70,193.87,160318,,,N*4E

$GPRMC,164255.000,A,3732.7410,N,12216.5204,W,0.38,352.82,160318,,,A*77

$GPRMC,164302.000,A,3732.7405,N,12216.5153,W,0.33,220.16,160318,,,A*73

$GPRMC,164309.000,A,3732.7394,N,12216.5164,W,0.21,278.03,160318,,,A*79

$GPRMC,164316.000,A,3732.7386,N,12216.5176,W,0.69,274.34,160318,,,A*73

$GPRMC,164323.000,A,3732.7371,N,12216.5207,W,0.20,289.90,160318,,,A*79

$GPRMC,164330.000,A,3732.7373,N,12216.5208,W,0.19,246.80,160318,,,A*7E

$GPRMC,164337.000,A,3732.7374,N,12216.5214,W,0.24,155.42,160318,,,A*72

$GPRMC,164344.000,A,3732.7371,N,12216.5215,W,0.40,276.10,160318,,,A*75

$GPRMC,164351.000,A,3732.7359,N,12216.5230,W,0.29,182.95,160318,,,A*76

$GPRMC,164358.000,A,3732.7353,N,12216.5235,W,0.30,180.36,160318,,,A*73

$GPRMC,164405.000,A,3732.7347,N,12216.5239,W,0.28,187.92,160318,,,A*75

$GPRMC,164412.000,A,3732.7342,N,12216.5239,W,0.25,256.24,160318,,,A*79

$GPRMC,164419.000,A,3732.7341,N,12216.5240,W,0.31,92.50,160318,,,A*43

$GPRMC,164426.000,A,3732.7338,N,12216.5238,W,0.21,251.28,160318,,,A*7D

$GPRMC,164433.000,A,3732.7340,N,12216.5237,W,0.19,87.68,160318,,,A*4F

$GPRMC,164440.000,A,3732.7343,N,12216.5232,W,0.64,77.48,160318,,,A*4A

$GPRMC,164447.000,A,3732.7347,N,12216.5234,W,0.27,278.55,160318,,,A*79

$GPRMC,164455.000,A,3732.7349,N,12216.5237,W,0.17,224.37,160318,,,A*79

$GPRMC,164502.000,A,3732.7346,N,12216.5237,W,0.57,142.16,160318,,,A*71

$GPRMC,164509.000,A,3732.7342,N,12216.5240,W,0.31,147.18,160318,,,A*75

$GPRMC,164516.000,A,3732.7355,N,12216.5240,W,0.33,115.43,160318,,,A*76

$GPRMC,164523.000,A,3732.7355,N,12216.5242,W,0.21,265.05,160318,,,A*77

$GPRMC,164530.000,A,3732.7368,N,12216.5269,W,0.27,204.68,160318,,,A*78

$GPRMC,164537.000,A,3732.7375,N,12216.5270,W,0.17,63.08,160318,,,A*4D

$GPRMC,164544.000,A,3732.7380,N,12216.5277,W,0.22,325.09,160318,,,A*72

$GPRMC,164551.000,A,3732.7377,N,12216.5279,W,0.43,50.40,160318,,,A*4B

$GPRMC,164558.000,A,3732.7378,N,12216.5267,W,0.15,242.86,160318,,,A*7A

$GPRMC,164605.000,A,3732.7376,N,12216.5269,W,0.29,255.33,160318,,,A*76

$GPRMC,164612.000,A,3732.7377,N,12216.5273,W,0.27,200.29,160318,,,A*7F

$GPRMC,164619.000,A,3732.7377,N,12216.5277,W,0.38,290.41,160318,,,A*79

$GPRMC,164626.000,A,3732.7371,N,12216.5270,W,0.47,240.65,160318,,,A*77

$GPRMC,164633.000,A,3732.7375,N,12216.5267,W,0.29,231.85,160318,,,A*71

$GPRMC,164640.000,A,3732.7367,N,12216.5262,W,0.38,246.77,160318,,,A*7E

$GPRMC,164647.000,A,3732.7366,N,12216.5266,W,0.42,277.02,160318,,,A*71

$GPRMC,164654.000,A,3732.7370,N,12216.5269,W,0.52,270.85,160318,,,A*72

$GPRMC,164701.000,A,3732.7365,N,12216.5270,W,0.61,191.00,160318,,,A*7E

$GPRMC,164708.000,A,3732.7342,N,12216.5261,W,1.04,171.78,160318,,,A*71

$GPRMC,164715.000,A,3732.7341,N,12216.5263,W,0.40,235.99,160318,,,A*71

$GPRMC,164722.000,A,3732.7345,N,12216.5269,W,0.45,219.04,160318,,,A*74

$GPRMC,164729.000,A,3732.7355,N,12216.5262,W,0.56,55.58,160318,,,A*44

$GPRMC,164736.000,A,3732.7358,N,12216.5257,W,0.69,210.49,160318,,,A*7E

$GPRMC,164743.000,A,3732.7356,N,12216.5251,W,0.09,121.93,160318,,,A*74

$GPRMC,164750.000,A,3732.7358,N,12216.5251,W,0.54,315.78,160318,,,A*70

$GPRMC,164757.000,A,3732.7364,N,12216.5247,W,1.05,358.23,160318,,,A*7D

$GPRMC,164804.000,A,3732.7364,N,12216.5235,W,0.35,123.64,160318,,,A*7E

$GPRMC,164811.000,A,3732.7365,N,12216.5231,W,0.31,33.85,160318,,,A*44

$GPRMC,164818.000,A,3732.7371,N,12216.5226,W,0.25,160.25,160318,,,A*76

$GPRMC,164825.000,A,3732.7360,N,12216.5235,W,0.26,282.96,160318,,,A*7E

$GPRMC,164833.000,A,3732.7362,N,12216.5241,W,0.55,111.75,160318,,,A*78

$GPRMC,164840.000,A,3732.7370,N,12216.5240,W,0.30,31.42,160318,,,A*4A

$GPRMC,164847.000,A,3732.7369,N,12216.5241,W,0.96,179.57,160318,,,A*71

$GPRMC,164854.000,A,3732.7352,N,12216.5261,W,0.61,230.01,160318,,,A*7C

$GPRMC,164901.000,A,3732.7345,N,12216.5271,W,0.57,210.47,160318,,,A*7F

$GPRMC,164908.000,A,3732.7327,N,12216.5294,W,1.02,236.94,160318,,,A*72

$GPRMC,164915.000,A,3732.7315,N,12216.5310,W,0.50,194.72,160318,,,A*77

$GPRMC,164922.000,A,3732.7315,N,12216.5304,W,0.76,193.43,160318,,,A*77

$GPRMC,164929.000,A,3732.7314,N,12216.5299,W,0.51,55.70,160318,,,A*46

$GPRMC,164936.000,A,3732.7316,N,12216.5300,W,0.40,276.58,160318,,,A*72

$GPRMC,164943.000,A,3732.7317,N,12216.5297,W,0.36,332.19,160318,,,A*7B

$GPRMC,164950.000,A,3732.7316,N,12216.5295,W,0.33,126.40,160318,,,A*74

$GPRMC,164957.000,A,3732.7317,N,12216.5292,W,0.24,12.84,160318,,,A*4D

$GPRMC,165004.000,A,3732.7320,N,12216.5293,W,0.61,267.56,160318,,,A*78

$GPRMC,165011.000,A,3732.7330,N,12216.5279,W,0.06,316.87,160318,,,A*73

$GPRMC,165018.000,A,3732.7334,N,12216.5277,W,0.75,35.19,160318,,,A*41

$GPRMC,165025.000,A,3732.7349,N,12216.5260,W,0.18,85.63,160318,,,A*4E

$GPRMC,165032.000,A,3732.7347,N,12216.5258,W,0.21,60.21,160318,,,A*4A

$GPRMC,165039.000,A,3732.7356,N,12216.5247,W,0.34,124.65,160318,,,A*7A

$GPRMC,165046.000,A,3732.7368,N,12216.5230,W,0.52,64.46,160318,,,A*4B

$GPRMC,165053.000,A,3732.7376,N,12216.5230,W,0.28,48.04,160318,,,A*45

$GPRMC,165100.000,A,3732.7377,N,12216.5230,W,0.30,224.43,160318,,,A*71

$GPRMC,165107.000,A,3732.7377,N,12216.5233,W,0.16,196.30,160318,,,A*7F

$GPRMC,165114.000,A,3732.7362,N,12216.5241,W,1.17,219.84,160318,,,A*77

$GPRMC,165121.000,A,3732.7346,N,12216.5262,W,0.24,298.29,160318,,,A*79

$GPRMC,165128.000,A,3732.7328,N,12216.5280,W,0.54,206.30,160318,,,A*7C

$GPRMC,165135.000,A,3732.7337,N,12216.5282,W,0.60,192.03,160318,,,A*75

$GPRMC,165142.000,A,3732.7344,N,12216.5275,W,0.12,156.71,160318,,,A*71

$GPRMC,165149.000,A,3732.7350,N,12216.5272,W,0.12,193.64,160318,,,A*75

$GPRMC,165156.000,A,3732.7350,N,12216.5271,W,0.37,28.02,160318,,,A*4E

$GPRMC,165157.000,A,3732.7351,N,12216.5270,W,0.45,35.24,160318,$GPRMC,165204.000,A,3732.7369,N,12216.5264,W,0.09,28.28

$GPRMC,165211.000,A,3732.7370,N,12216.5260,W,0.06,357.58,160318,,,A*7A

$GPRMC,165218.000,A,3732.7375,N,12216.5249,W,0.12,248.93,160318,,,A*70

$GPRMC,165225.000,A,3732.7376,N,12216.5251,W,0.27,207.04,160318,,,A*77

$GPRMC,165232.000,A,3732.7373,N,12216.5256,W,0.17,218.84,160318,,,A*76

$GPRMC,165239.000,A,3732.7372,N,12216.5260,W,0.31,337.84,160318,,,A*71

$GPRMC,165246.000,A,3732.7375,N,12216.5262,W,0.03,42.15,160318,,,A*44

$GPRMC,165307.000,A,3732.7367,N,12216.5252,W,0.29,126.60,160318,,,A*79

$GPRMC,165314.000,A,3732.7364,N,12216.5244,W,0.31,141.92,160318,,,A*7A

$GPRMC,165321.000,A,3732.7363,N,12216.5241,W,0.53,298.32,160318,,,A*77

$GPRMC,165328.000,A,3732.7365,N,12216.5242,W,0.48,165.18,160318,,,A*78

$GPRMC,165335.000,A,3732.7365,N,12216.5237,W,0.53,41.78,160318,,,A*4D

$GPRMC,165342.000,A,3732.7368,N,12216.5243,W,0.66,284.29,160318,,,A*7A

$GPRMC,165349.000,A,3732.7372,N,12216.5242,W,0.03,15.96,160318,,,A*46

$GPRMC,165356.000,A,3732.7373,N,12216.5243,W,0.08,340.05,160318,,,A*7A

$GPRMC,165403.000,A,3732.7377,N,12216.5245,W,0.28,7.48,160318,,,A*74

$GPRMC,165410.000,A,3732.7380,N,12216.5244,W,0.19,322.67,160318,,,A*74

$GPRMC,165417.000,A,3732.7383,N,12216.5245,W,0.19,52.74,160318,,,A*47

$GPRMC,165424.000,A,3732.7384,N,12216.5243,W,0.49,251.49,160318,,,A*7C

$GPRMC,165431.000,A,3732.7402,N,12216.5249,W,0.16,289.30,160318,,,A*7A

$GPRMC,165438.000,A,3732.7404,N,12216.5249,W,0.47,256.06,160318,,,A*76

$GPRMC,165445.000,A,3732.7403,N,12216.5255,W,0.43,13.69,160318,,,A*48

$GPRMC,165452.000,A,3732.7405,N,12216.5252,W,0.09,130.01,160318,,,A*7F

$GPRMC,165459.000,A,3732.7400,N,12216.5246,W,0.34,177.31,160318,,,A*7A

$GPRMC,165507.000,A,3732.7399,N,12216.5242,W,0.12,30.96,160318,,,A*48

$GPRMC,165514.000,A,3732.7400,N,12216.5240,W,0.22,169.90,160318,,,A*77

$GPRMC,165521.000,A,3732.7394,N,12216.5239,W,0.16,252.16,160318,,,A*77

$GPRMC,165528.000,A,3732.7393,N,12216.5239,W,0.21,138.91,160318,,,A*7D

$GPRMC,165535.000,A,3732.7391,N,12216.5237,W,0.11,235.98,160318,,,A*79

$GPRMC,165542.000,A,3732.7388,N,12216.5235,W,0.35,116.70,160318,,,A*71

$GPRMC,165549.000,A,3732.7384,N,12216.5229,W,0.32,121.94,160318,,,A*72

$GPRMC,165556.000,A,3732.7382,N,12216.5226,W,0.07,95.02,160318,,,A*42

$GPRMC,165603.000,A,3732.7380,N,12216.5226,W,0.34,167.62,160318,,,A*79

$GPRMC,165610.000,A,3732.7373,N,12216.5225,W,0.35,172.53,160318,,,A*73

$GPRMC,165617.000,A,3732.7379,N,12216.5232,W,0.32,18.77,160318,,,A*44

$GPRMC,165624.000,A,3732.7380,N,12216.5233,W,0.47,199.57,160318,,,A*7B

$GPRMC,165631.000,A,3732.7396,N,12216.5213,W,1.34,33.73,160318,,,A*48

$GPRMC,165638.000,A,3732.7445,N,12216.5180,W,0.15,44.20,160318,,,A*45

$GPRMC,165645.000,A,3732.7424,N,12216.5181,W,0.19,66.51,160318,,,A*43

$GPRMC,165652.000,A,3732.7413,N,12216.5187,W,0.15,326.44,160318,,,A*78

$GPRMC,165659.000,A,3732.7409,N,12216.5185,W,0.11,65.50,160318,,,A*4F

$GPRMC,165706.000,A,3732.7416,N,12216.5182,W,0.16,19.92,160318,,,A*4F

$GPRMC,165713.000,A,3732.7395,N,12216.5190,W,0.23,189.25,160318,,,A*76

$GPRMC,165720.000,A,3732.7391,N,12216.5189,W,0.12,252.74,160318,,,A*79

$GPRMC,165727.000,A,3732.7391,N,12216.5193,W,0.11,42.74,160318,,,A*45

$GPRMC,165734.000,A,3732.7396,N,12216.5190,W,0.35,61.99,160318,,,A*47

$GPRMC,165741.000,A,3732.7401,N,12216.5182,W,0.34,29.89,160318,,,A*43

$GPRMC,165748.000,A,3732.7405,N,12216.5178,W,0.36,46.75,160318,,,A*43

$GPRMC,165755.000,A,3732.7409,N,12216.5171,W,0.40,70.15,160318,,,A*48

$GPRMC,165803.000,A,3732.7413,N,12216.5161,W,0.35,60.94,160318,,,A*44

$GPRMC,165810.000,A,3732.7418,N,12216.5154,W,0.28,52.51,160318,,,A*4F

$GPRMC,165817.000,A,3732.7419,N,12216.5152,W,0.32,85.60,160318,,,A*4C

$GPRMC,165824.000,A,3732.7421,N,12216.5144,W,0.36,47.54,160318,,,A*4D

$GPRMC,165831.000,A,3732.7426,N,12216.5138,W,0.31,54.18,160318,,,A*48

$GPRMC,165838.000,A,3732.7431,N,12216.5129,W,0.23,69.36,160318,,,A*46

$GPRMC,165845.000,A,3732.7432,N,12216.5126,W,0.23,80.98,160318,,,A*43

$GPRMC,165852.000,A,3732.7425,N,12216.5126,W,0.15,95.98,160318,,,A*42

$GPRMC,165859.000,A,3732.7424,N,12216.5123,W,0.29,73.51,160318,,,A*4F

$GPRMC,165906.000,A,3732.7417,N,12216.5132,W,0.10,24.44,160318,,,A*48

$GPRMC,165913.000,A,3732.7416,N,12216.5133,W,0.30,71.70,160318,,,A*49

$GPRMC,165920.000,A,3732.7419,N,12216.5136,W,0.25,48.02,160318,,,A*48

$GPRMC,165927.000,A,3732.7419,N,12216.5141,W,0.16,48.58,160318,,,A*40

$GPRMC,165934.000,A,3732.7420,N,12216.5148,W,0.17,299.38,160318,,,A*78

$GPRMC,165941.000,A,3732.7420,N,12216.5152,W,0.18,156.40,160318,,,A*71

$GPRMC,165948.000,A,3732.7418,N,12216.5150,W,0.05,183.72,160318,,,A*74

$GPRMC,165955.000,A,3732.7417,N,12216.5148,W,0.15,52.71,160318,,,A*41

$GPRMC,170002.000,A,3732.7415,N,12216.5150,W,0.19,89.49,160318,,,A*44

$GPRMC,170009.000,A,3732.7406,N,12216.5151,W,0.09,359.09,160318,,,A*77

$GPRMC,170016.000,A,3732.7406,N,12216.5150,W,0.27,97.16,160318,,,A*4B

$GPRMC,170023.000,A,3732.7407,N,12216.5145,W,0.30,44.33,160318,,,A*47

$GPRMC,170030.000,A,3732.7412,N,12216.5142,W,0.21,8.09,160318,,,A*77

$GPRMC,170037.000,A,3732.7409,N,12216.5154,W,0.10,211.58,160318,,,A*71

$GPRMC,170044.000,A,3732.7406,N,12216.5167,W,0.13,249.55,160318,,,A*79

$GPRMC,170051.000,A,3732.7403,N,12216.5173,W,0.13,83.49,160318,,,A*44

$GPRMC,170058.000,A,3732.7404,N,12216.5169,W,0.29,47.32,160318,,,A*4C

$GPRMC,170105.000,A,3732.7398,N,12216.5187,W,0.73,242.53,160318,,,A*78

$GPRMC,170112.000,A,3732.7363,N,12216.5258,W,1.32,221.46,160318,,,A*7E

$GPRMC,170119.000,A,3732.7412,N,12216.5387,W,9.39,296.88,160318,,,A*7A

$GPRMC,170126.000,A,3732.7493,N,12216.5612,W,5.44,316.47,160318,,,A*7A

$GPRMC,170133.000,A,3732.7666,N,12216.5584,W,14.81,30.06,160318,,,A*71

$GPRMC,170140.000,A,3732.7982,N,12216.5369,W,19.13,26.54,160318,,,A*73

$GPRMC,170147.000,A,3732.8357,N,12216.5149,W,21.02,18.02,160318,,,A*7C

$GPRMC,170154.000,A,3732.8787,N,12216.5127,W,23.32,347.33,160318,,,A*45

$GPRMC,170201.000,A,3732.9196,N,12216.5380,W,22.82,321.92,160318,,,A*4F

$GPRMC,170208.000,A,3732.9484,N,12216.5805,W,23.57,307.65,160318,,,A*43

$GPRMC,170215.000,A,3732.9690,N,12216.6106,W,9.88,339.47,160318,,,A*76

$GPRMC,170222.000,A,3732.9935,N,12216.5899,W,17.20,42.41,160318,,,A*7A

$GPRMC,170229.000,A,3733.0203,N,12216.5534,W,22.12,52.53,160318,,,A*78

$GPRMC,170236.000,A,3733.0398,N,12216.5080,W,19.07,70.72,160318,,,A*70

$GPRMC,170243.000,A,3733.0440,N,12216.4819,W,2.58,81.29,160318,,,A*49

$GPRMC,170250.000,A,3733.0555,N,12216.4715,W,16.62,352.77,160318,,,A*47

$GPRMC,170257.000,A,3733.0983,N,12216.4898,W,27.13,334.57,160318,,,A*4B

$GPRMC,170304.000,A,3733.1497,N,12216.5280,W,30.38,328.22,160318,,,A*47

$GPRMC,170311.000,A,3733.1979,N,12216.5700,W,29.49,321.93,160318,,,A*4E

$GPRMC,170318.000,A,3733.2434,N,12216.6146,W,26.71,323.82,160318,,,A*41

$GPRMC,170325.000,A,3733.2829,N,12216.6539,W,27.09,321.10,160318,,,A*44

$GPRMC,170332.000,A,3733.3164,N,12216.6986,W,21.66,301.45,160318,,,A*46

$GPRMC,170339.000,A,3733.3288,N,12216.7319,W,8.34,287.78,160318,,,A*7C

$GPRMC,170346.000,A,3733.3310,N,12216.7492,W,12.03,283.52,160318,,,A*43

$GPRMC,170353.000,A,3733.3276,N,12216.7980,W,23.18,260.71,160318,,,A*4C

$GPRMC,170400.000,A,3733.3186,N,12216.8471,W,13.84,256.04,160318,,,A*4C

$GPRMC,170407.000,A,3733.3147,N,12216.8696,W,8.68,281.60,160318,,,A*7D

$GPRMC,170414.000,A,3733.3421,N,12216.8965,W,26.52,323.57,160318,,,A*41

$GPRMC,170421.000,A,3733.3908,N,12216.9388,W,30.93,324.94,160318,,,A*4B

$GPRMC,170428.000,A,3733.4468,N,12216.9587,W,29.21,11.21,160318,,,A*7D

$GPRMC,170435.000,A,3733.4967,N,12216.9018,W,38.95,49.55,160318,,,A*71

$GPRMC,170442.000,A,3733.5502,N,12216.8169,W,44.76,49.92,160318,,,A*74

$GPRMC,170449.000,A,3733.6088,N,12216.7246,W,49.65,52.11,160318,,,A*74

$GPRMC,170456.000,A,3733.6700,N,12216.6257,W,52.58,51.93,160318,,,A*71

$GPRMC,170503.000,A,3733.7362,N,12216.5204,W,55.72,52.05,160318,,,A*77

$GPRMC,170510.000,A,3733.8060,N,12216.4163,W,55.85,47.19,160318,,,A*79

$GPRMC,170517.000,A,3733.8827,N,12216.3184,W,57.27,42.69,160318,,,A*73

$GPRMC,170524.000,A,3733.9683,N,12216.2241,W,59.09,40.85,160318,,,A*7B

$GPRMC,170531.000,A,3734.0559,N,12216.1298,W,58.54,40.53,160318,,,A*70

$GPRMC,170538.000,A,3734.1462,N,12216.0340,W,59.76,40.96,160318,,,A*7C

$GPRMC,170545.000,A,3734.2334,N,12215.9398,W,58.52,41.00,160318,,,A*77

$GPRMC,170552.000,A,3734.3199,N,12215.8482,W,56.70,40.69,160318,,,A*78

$GPRMC,170600.000,A,3734.4114,N,12215.7490,W,51.85,40.81,160318,,,A*79

$GPRMC,170607.000,A,3734.4866,N,12215.6670,W,52.21,41.26,160318,,,A*7E

$GPRMC,170614.000,A,3734.5652,N,12215.5807,W,54.02,40.94,160318,,,A*76

$GPRMC,170621.000,A,3734.6427,N,12215.4957,W,48.91,41.06,160318,,,A*7B

$GPRMC,170628.000,A,3734.7121,N,12215.4198,W,45.36,41.01,160318,,,A*7C

$GPRMC,170635.000,A,3734.7793,N,12215.3459,W,44.65,41.27,160318,,,A*73

$GPRMC,170642.000,A,3734.8436,N,12215.2757,W,42.26,41.04,160318,,,A*7C

$GPRMC,170649.000,A,3734.9084,N,12215.2044,W,45.87,40.92,160318,,,A*7C

$GPRMC,170656.000,A,3734.9789,N,12215.1281,W,49.81,39.90,160318,,,A*76

$GPRMC,170703.000,A,3735.0541,N,12215.0461,W,52.37,41.52,160318,,,A*76

$GPRMC,170710.000,A,3735.1290,N,12214.9632,W,52.39,41.33,160318,,,A*7B

$GPRMC,170717.000,A,3735.2068,N,12214.8782,W,54.32,41.36,160318,,,A*79

$GPRMC,170724.000,A,3735.2865,N,12214.7899,W,53.62,40.74,160318,,,A*73

$GPRMC,170731.000,A,3735.3645,N,12214.7037,W,53.54,42.27,160318,,,A*77

$GPRMC,170732.000,A,3735.3753,N,12214.6909,W,53.31,44.06,160318$GPRMC,170739.000,A,3735.4399,N,12214.5886,W,54.70,58.9

$GPRMC,170746.000,A,3735.4834,N,12214.4652,W,55.66,70.10,160318,,,A*7C

$GPRMC,170753.000,A,3735.5200,N,12214.3399,W,53.77,69.65,160318,,,A*7D

$GPRMC,170800.000,A,3735.5565,N,12214.2162,W,54.79,69.60,160318,,,A*7B

$GPRMC,170807.000,A,3735.5948,N,12214.0898,W,55.46,68.76,160318,,,A*7A

$GPRMC,170814.000,A,3735.6345,N,12213.9595,W,57.83,69.58,160318,,,A*74

$GPRMC,170821.000,A,3735.6747,N,12213.8237,W,60.45,69.42,160318,,,A*7F

$GPRMC,170828.000,A,3735.7168,N,12213.6820,W,63.12,69.46,160318,,,A*7B

$GPRMC,170835.000,A,3735.7595,N,12213.5380,W,61.99,69.30,160318,,,A*73

$GPRMC,170842.000,A,3735.7998,N,12213.4007,W,59.13,69.22,160318,,,A*75

$GPRMC,170849.000,A,3735.8398,N,12213.2654,W,58.81,69.30,160318,,,A*74

$GPRMC,170856.000,A,3735.8782,N,12213.1370,W,56.23,69.34,160318,,,A*77

$GPRMC,170903.000,A,3735.9158,N,12213.0091,W,56.42,69.40,160318,,,A*7F

$GPRMC,170910.000,A,3735.9544,N,12212.8783,W,57.96,69.17,160318,,,A*73

$GPRMC,170917.000,A,3735.9936,N,12212.7447,W,58.55,69.51,160318,,,A*7B

$GPRMC,170924.000,A,3736.0328,N,12212.6136,W,57.23,69.51,160318,,,A*78

$GPRMC,170931.000,A,3736.0720,N,12212.4822,W,57.48,69.10,160318,,,A*76

$GPRMC,170932.000,A,3736.0777,N,12212.4634,W,57.42,69.53,160318$GPRMC,170939.000,A,3736.1167,N,12212.3328,W,57.20,69.1

$GPRMC,170946.000,A,3736.1543,N,12212.2070,W,53.21,69.37,160318,,,A*77

$GPRMC,170953.000,A,3736.1905,N,12212.0867,W,52.13,69.46,160318,,,A*77

$GPRMC,171000.000,A,3736.2262,N,12211.9671,W,52.36,69.48,160318,,,A*7A

$GPRMC,171007.000,A,3736.2616,N,12211.8463,W,52.98,69.68,160318,,,A*7C

$GPRMC,171014.000,A,3736.2981,N,12211.7227,W,53.89,69.39,160318,,,A*73

$GPRMC,171021.000,A,3736.3350,N,12211.5981,W,54.27,69.98,160318,,,A*7F

$GPRMC,171028.000,A,3736.3730,N,12211.4695,W,57.39,69.78,160318,,,A*7D

$GPRMC,171035.000,A,3736.4122,N,12211.3355,W,58.93,69.25,160318,,,A*7A

$GPRMC,171042.000,A,3736.4517,N,12211.2033,W,56.65,69.71,160318,,,A*7C

$GPRMC,171049.000,A,3736.4905,N,12211.0743,W,56.99,69.26,160318,,,A*7B

$GPRMC,171056.000,A,3736.5267,N,12210.9480,W,53.26,70.65,160318,,,A*71

$GPRMC,171103.000,A,3736.5623,N,12210.8265,W,53.53,70.01,160318,,,A*78

$GPRMC,171110.000,A,3736.5991,N,12210.7019,W,55.39,69.65,160318,,,A*7A

$GPRMC,171117.000,A,3736.6372,N,12210.5722,W,57.32,69.89,160318,,,A*7F

$GPRMC,171124.000,A,3736.6765,N,12210.4406,W,58.55,69.30,160318,,,A*75

$GPRMC,171131.000,A,3736.7172,N,12210.3065,W,57.88,69.13,160318,,,A*78

$GPRMC,171138.000,A,3736.7551,N,12210.1764,W,56.07,69.51,160318,,,A*70

$GPRMC,171145.000,A,3736.7938,N,12210.0473,W,56.27,69.17,160318,,,A*7D

$GPRMC,171152.000,A,3736.8322,N,12209.9195,W,55.43,69.36,160318,,,A*7B

$GPRMC,171159.000,A,3736.8695,N,12209.7922,W,54.65,70.05,160318,,,A*7E

$GPRMC,171206.000,A,3736.9063,N,12209.6667,W,55.57,69.55,160318,,,A*7B

$GPRMC,171213.000,A,3736.9456,N,12209.5344,W,58.99,69.28,160318,,,A*7F

$GPRMC,171220.000,A,3736.9864,N,12209.3968,W,58.05,69.78,160318,,,A*70

$GPRMC,171227.000,A,3737.0226,N,12209.2694,W,52.74,73.72,160318,,,A*73

$GPRMC,171234.000,A,3737.0530,N,12209.1432,W,55.17,70.39,160318,,,A*72

$GPRMC,171241.000,A,3737.0936,N,12209.0211,W,52.79,65.62,160318,,,A*79

$GPRMC,171248.000,A,3737.1357,N,12208.9038,W,50.87,66.96,160318,,,A*76

$GPRMC,171255.000,A,3737.1731,N,12208.7915,W,50.44,68.49,160318,,,A*75

$GPRMC,171302.000,A,3737.2113,N,12208.6743,W,51.49,66.62,160318,,,A*74

$GPRMC,171309.000,A,3737.2509,N,12208.5575,W,52.69,67.39,160318,,,A*7A

$GPRMC,171316.000,A,3737.2913,N,12208.4376,W,53.17,67.44,160318,,,A*75

$GPRMC,171323.000,A,3737.3318,N,12208.3173,W,53.43,67.08,160318,,,A*7A

$GPRMC,171330.000,A,3737.3726,N,12208.1956,W,54.11,67.03,160318,,,A*77

$GPRMC,171337.000,A,3737.4141,N,12208.0726,W,55.25,67.94,160318,,,A*70

$GPRMC,171344.000,A,3737.4567,N,12207.9453,W,57.43,66.85,160318,,,A*70

$GPRMC,171351.000,A,3737.5008,N,12207.8142,W,58.73,67.27,160318,,,A*78

$GPRMC,171358.000,A,3737.5458,N,12207.6809,W,59.31,67.24,160318,,,A*7C

$GPRMC,171405.000,A,3737.5914,N,12207.5456,W,60.24,67.05,160318,,,A*7E

$GPRMC,171412.000,A,3737.6370,N,12207.4111,W,57.23,67.19,160318,,,A*7A

$GPRMC,171419.000,A,3737.6796,N,12207.2883,W,54.16,66.52,160318,,,A*72

$GPRMC,171426.000,A,3737.7202,N,12207.1659,W,54.40,66.85,160318,,,A*74

$GPRMC,171433.000,A,3737.7618,N,12207.0417,W,55.01,67.14,160318,,,A*7B

$GPRMC,171440.000,A,3737.8027,N,12206.9196,W,51.91,66.93,160318,,,A*7D

$GPRMC,171447.000,A,3737.8410,N,12206.8063,W,46.70,66.83,160318,,,A*78

$GPRMC,171454.000,A,3737.8810,N,12206.6994,W,49.95,59.67,160318,,,A*7B

$GPRMC,171501.000,A,3737.9319,N,12206.5985,W,49.18,59.31,160318,,,A*7C

$GPRMC,171508.000,A,3737.9773,N,12206.5024,W,44.29,62.78,160318,,,A*75

$GPRMC,171515.000,A,3738.0138,N,12206.4124,W,43.96,63.23,160318,,,A*7A

$GPRMC,171522.000,A,3738.0546,N,12206.3086,W,50.08,63.67,160318,,,A*78

$GPRMC,171529.000,A,3738.0932,N,12206.1979,W,43.99,69.47,160318,,,A*75

$GPRMC,171536.000,A,3738.1244,N,12206.1065,W,42.02,64.97,160318,,,A*77

$GPRMC,171543.000,A,3738.1596,N,12206.0131,W,43.96,62.15,160318,,,A*7C

$GPRMC,171550.000,A,3738.2090,N,12205.9251,W,42.02,47.86,160318,,,A*70

$GPRMC,171557.000,A,3738.2715,N,12205.8579,W,42.01,34.51,160318,,,A*7C

$GPRMC,171604.000,A,3738.3413,N,12205.8122,W,38.17,23.20,160318,,,A*7D

$GPRMC,171611.000,A,3738.4154,N,12205.7716,W,44.50,24.97,160318,,,A*75

$GPRMC,171618.000,A,3738.4949,N,12205.7233,W,44.35,26.02,160318,,,A*77

$GPRMC,171625.000,A,3738.5598,N,12205.6626,W,38.49,47.51,160318,,,A*78

$GPRMC,171632.000,A,3738.6035,N,12205.6051,W,29.47,33.58,160318,,,A*7D

$GPRMC,171639.000,A,3738.6641,N,12205.5800,W,36.88,4.91,160318,,,A*40

$GPRMC,171646.000,A,3738.7381,N,12205.6032,W,40.91,336.14,160318,,,A*4C

$GPRMC,171653.000,A,3738.7994,N,12205.6763,W,40.44,320.08,160318,,,A*47

$GPRMC,171700.000,A,3738.8645,N,12205.7373,W,41.91,329.09,160318,,,A*49

$GPRMC,171707.000,A,3738.9334,N,12205.7900,W,39.01,329.41,160318,,,A*48

$GPRMC,171714.000,A,3738.9903,N,12205.8311,W,33.13,332.03,160318,,,A*44

$GPRMC,171721.000,A,3739.0544,N,12205.8723,W,41.85,333.83,160318,,,A*43

$GPRMC,171728.000,A,3739.1371,N,12205.9235,W,49.61,333.53,160318,,,A*47

$GPRMC,171735.000,A,3739.2270,N,12205.9807,W,55.25,333.53,160318,,,A*4E

$GPRMC,171742.000,A,3739.3302,N,12206.0459,W,60.19,333.03,160318,,,A*4A

$GPRMC,171749.000,A,3739.4320,N,12206.1093,W,56.00,333.89,160318,,,A*4A

$GPRMC,171756.000,A,3739.5290,N,12206.1692,W,55.66,334.21,160318,,,A*4E

$GPRMC,171803.000,A,3739.6219,N,12206.2268,W,49.31,333.91,160318,,,A*42

$GPRMC,171810.000,A,3739.7069,N,12206.2780,W,48.12,333.97,160318,,,A*41

$GPRMC,171817.000,A,3739.7873,N,12206.3265,W,43.60,333.25,160318,,,A*4D

$GPRMC,171824.000,A,3739.8617,N,12206.3727,W,41.71,334.50,160318,,,A*4A

$GPRMC,171831.000,A,3739.9359,N,12206.4177,W,42.14,333.55,160318,,,A*46

$GPRMC,171838.000,A,3740.0047,N,12206.4606,W,39.08,332.82,160318,,,A*4F

$GPRMC,171845.000,A,3740.0809,N,12206.5110,W,47.58,333.69,160318,,,A*4E

$GPRMC,171852.000,A,3740.1565,N,12206.5583,W,41.47,333.52,160318,,,A*40

$GPRMC,171859.000,A,3740.2324,N,12206.6061,W,45.52,332.97,160318,,,A*49

$GPRMC,171906.000,A,3740.3109,N,12206.6652,W,48.53,325.26,160318,,,A*48

$GPRMC,171913.000,A,3740.3808,N,12206.7360,W,45.18,317.88,160318,,,A*46

$GPRMC,171920.000,A,3740.4393,N,12206.8134,W,42.26,311.91,160318,,,A*40

$GPRMC,171927.000,A,3740.4920,N,12206.8897,W,43.06,313.48,160318,,,A*40

$GPRMC,171934.000,A,3740.5520,N,12206.9681,W,44.66,314.31,160318,,,A*4F

$GPRMC,171941.000,A,3740.6124,N,12207.0497,W,46.96,311.04,160318,,,A*4D

$GPRMC,171948.000,A,3740.6711,N,12207.1415,W,48.16,307.56,160318,,,A*49

$GPRMC,171955.000,A,3740.7270,N,12207.2311,W,45.89,310.84,160318,,,A*44

$GPRMC,172002.000,A,3740.7817,N,12207.3111,W,44.02,310.60,160318,,,A*4C

$GPRMC,172009.000,A,3740.8364,N,12207.3919,W,43.50,309.55,160318,,,A*49

$GPRMC,172016.000,A,3740.8935,N,12207.4737,W,45.65,311.93,160318,,,A*4F

$GPRMC,172023.000,A,3740.9549,N,12207.5645,W,50.86,310.79,160318,,,A*46

$GPRMC,172030.000,A,3741.0185,N,12207.6557,W,50.36,311.23,160318,,,A*4E

$GPRMC,172037.000,A,3741.0832,N,12207.7470,W,50.16,311.34,160318,,,A*4D

$GPRMC,172044.000,A,3741.1445,N,12207.8361,W,47.93,311.17,160318,,,A*46

$GPRMC,172051.000,A,3741.2083,N,12207.9296,W,54.09,309.35,160318,,,A*4F

$GPRMC,172058.000,A,3741.2759,N,12208.0295,W,52.48,310.94,160318,,,A*43

$GPRMC,172105.000,A,3741.3468,N,12208.1328,W,56.62,311.07,160318,,,A*4B

$GPRMC,172112.000,A,3741.4214,N,12208.2400,W,59.80,311.20,160318,,,A*4F

$GPRMC,172119.000,A,3741.4975,N,12208.3499,W,58.04,310.19,160318,,,A*4F

$GPRMC,172126.000,A,3741.5695,N,12208.4541,W,55.44,311.12,160318,,,D*46

$GPRMC,172133.000,A,3741.6407,N,12208.5578,W,54.18,310.58,160318,,,D*44

$GPRMC,172140.000,A,3741.7097,N,12208.6587,W,54.52,310.61,160318,,,D*4B

$GPRMC,172147.000,A,3741.7786,N,12208.7602,W,52.86,311.18,160318,,,D*44

$GPRMC,172154.000,A,3741.8432,N,12208.8537,W,48.13,311.09,160318,,,D*48

$GPRMC,172201.000,A,3741.9058,N,12208.9451,W,49.62,310.21,160318,,,D*4E

$GPRMC,172208.000,A,3741.9693,N,12209.0395,W,51.03,310.59,160318,,,D*40

$GPRMC,172215.000,A,3742.0347,N,12209.1338,W,51.76,311.00,160318,,,D*43

$GPRMC,172222.000,A,3742.1031,N,12209.2336,W,53.97,310.99,160318,,,D*45

$GPRMC,172229.000,A,3742.1713,N,12209.3335,W,53.19,311.04,160318,,,D*48

$GPRMC,172236.000,A,3742.2370,N,12209.4280,W,49.63,311.17,160318,,,D*48

$GPRMC,172243.000,A,3742.2997,N,12209.5171,W,47.37,310.47,160318,,,D*4E

$GPRMC,172250.000,A,3742.3607,N,12209.6060,W,49.02,310.71,160318,,,D*44

$GPRMC,172257.000,A,3742.4232,N,12209.6964,W,50.38,310.65,160318,,,D*4F

$GPRMC,172304.000,A,3742.4891,N,12209.7926,W,53.43,310.89,160318,,,D*41

$GPRMC,172311.000,A,3742.5586,N,12209.8918,W,55.77,311.41,160318,,,D*49

$GPRMC,172318.000,A,3742.6306,N,12209.9945,W,55.44,311.01,160318,,,D*40

$GPRMC,172325.000,A,3742.6994,N,12210.0931,W,54.12,310.91,160318,,,D*47

$GPRMC,172332.000,A,3742.7684,N,12210.1917,W,52.95,311.71,160318,,,D*4D

$GPRMC,172339.000,A,3742.8422,N,12210.2876,W,54.57,317.31,160318,,,D*48

$GPRMC,172346.000,A,3742.9164,N,12210.3664,W,46.64,320.90,160318,,,D*46

$GPRMC,172353.000,A,3742.9864,N,12210.4382,W,44.31,320.60,160318,,,D*4C

$GPRMC,172400.000,A,3743.0554,N,12210.5090,W,45.63,320.92,160318,,,D*41

$GPRMC,172407.000,A,3743.1232,N,12210.5787,W,44.86,321.05,160318,,,D*44

$GPRMC,172414.000,A,3743.1916,N,12210.6485,W,46.45,320.67,160318,,,D*41

$GPRMC,172421.000,A,3743.2657,N,12210.7226,W,50.53,321.11,160318,,,D*40

$GPRMC,172428.000,A,3743.3454,N,12210.8029,W,52.77,321.02,160318,,,D*4D

$GPRMC,172435.000,A,3743.4247,N,12210.8821,W,50.20,321.20,160318,,,D*42

$GPRMC,172442.000,A,3743.5005,N,12210.9572,W,49.84,323.27,160318,,,D*4E

$GPRMC,172449.000,A,3743.5783,N,12211.0273,W,48.62,325.20,160318,,,D*4A

$GPRMC,172456.000,A,3743.6527,N,12211.0931,W,46.67,324.81,160318,,,D*47

$GPRMC,172503.000,A,3743.7283,N,12211.1583,W,47.31,325.09,160318,,,D*49

$GPRMC,172510.000,A,3743.8053,N,12211.2248,W,47.32,326.27,160318,,,D*44

$GPRMC,172517.000,A,3743.8777,N,12211.2873,W,45.41,324.87,160318,,,D*4E

$GPRMC,172524.000,A,3743.9535,N,12211.3537,W,48.61,325.19,160318,,,D*4E

$GPRMC,172531.000,A,3744.0284,N,12211.4205,W,44.72,324.41,160318,,,D*4A

$GPRMC,172538.000,A,3744.1024,N,12211.4854,W,48.02,324.96,160318,,,D*45

$GPRMC,172545.000,A,3744.1777,N,12211.5509,W,45.71,324.92,160318,,,D*47

$GPRMC,172552.000,A,3744.2508,N,12211.6153,W,46.68,325.30,160318,,,D*42

$GPRMC,172559.000,A,3744.3255,N,12211.6807,W,47.00,325.02,160318,,,D*41

$GPRMC,172606.000,A,3744.4033,N,12211.7495,W,50.68,324.89,160318,,,D*41

$GPRMC,172613.000,A,3744.4858,N,12211.8220,W,52.41,324.69,160318,,,D*40

$GPRMC,172620.000,A,3744.5650,N,12211.8922,W,48.17,324.46,160318,,,D*4B

$GPRMC,172627.000,A,3744.6395,N,12211.9574,W,45.60,325.44,160318,,,D*43

$GPRMC,172634.000,A,3744.7161,N,12212.0238,W,48.81,325.31,160318,,,D*4C

$GPRMC,172641.000,A,3744.7917,N,12212.0903,W,47.92,325.66,160318,,,D*4B

$GPRMC,172648.000,A,3744.8686,N,12212.1579,W,47.94,325.90,160318,,,D*45

$GPRMC,172655.000,A,3744.9455,N,12212.2257,W,49.62,324.77,160318,,,D*43

$GPRMC,172702.000,A,3745.0233,N,12212.2943,W,47.37,325.14,160318,,,D*4A

$GPRMC,172709.000,A,3745.0980,N,12212.3599,W,48.01,325.07,160318,,,D*40

$GPRMC,172716.000,A,3745.1748,N,12212.4278,W,48.78,324.95,160318,,,D*4E

$GPRMC,172723.000,A,3745.2549,N,12212.4985,W,51.54,323.75,160318,,,D*4E

$GPRMC,172730.000,A,3745.3380,N,12212.5705,W,51.91,325.36,160318,,,D*41

$GPRMC,172737.000,A,3745.4175,N,12212.6404,W,46.17,324.83,160318,,,D*4F

$GPRMC,172744.000,A,3745.4890,N,12212.7035,W,44.41,324.89,160318,,,D*45

$GPRMC,172751.000,A,3745.5653,N,12212.7704,W,49.66,325.52,160318,,,D*4B

$GPRMC,172758.000,A,3745.6479,N,12212.8431,W,51.35,324.67,160318,,,D*49

$GPRMC,172805.000,A,3745.7273,N,12212.9126,W,49.18,324.86,160318,,,D*48

$GPRMC,172812.000,A,3745.8005,N,12212.9767,W,44.50,325.64,160318,,,D*4D

$GPRMC,172819.000,A,3745.8733,N,12213.0402,W,42.50,325.47,160318,,,D*4B

$GPRMC,172826.000,A,3745.9487,N,12213.1025,W,48.96,329.27,160318,,,D*40

$GPRMC,172833.000,A,3746.0325,N,12213.1629,W,49.49,329.73,160318,,,D*49

$GPRMC,172840.000,A,3746.1128,N,12213.2198,W,46.55,330.07,160318,,,D*44

$GPRMC,172847.000,A,3746.1977,N,12213.2817,W,52.00,328.13,160318,,,D*46

$GPRMC,172854.000,A,3746.2756,N,12213.3655,W,51.81,310.70,160318,,,D*47

$GPRMC,172901.000,A,3746.3291,N,12213.4693,W,48.01,295.97,160318,,,D*41

$GPRMC,172908.000,A,3746.3636,N,12213.5760,W,45.68,292.84,160318,,,D*4A

$GPRMC,172915.000,A,3746.3950,N,12213.6733,W,42.46,293.13,160318,,,D*48

$GPRMC,172922.000,A,3746.4280,N,12213.7747,W,45.35,292.73,160318,,,D*4B

$GPRMC,172929.000,A,3746.4636,N,12213.8820,W,47.80,293.65,160318,,,D*42

$GPRMC,172936.000,A,3746.4998,N,12213.9907,W,48.90,293.97,160318,,,D*41

$GPRMC,172943.000,A,3746.5470,N,12214.0963,W,51.60,306.76,160318,,,D*40

$GPRMC,172950.000,A,3746.6171,N,12214.1878,W,50.26,321.64,160318,,,D*4A

$GPRMC,172957.000,A,3746.7032,N,12214.2526,W,52.09,335.02,160318,,,D*45

$GPRMC,173004.000,A,3746.7930,N,12214.2903,W,46.30,342.79,160318,,,D*48

$GPRMC,173011.000,A,3746.8822,N,12214.3234,W,49.26,344.08,160318,,,D*47

$GPRMC,173018.000,A,3746.9696,N,12214.3708,W,49.19,326.59,160318,,,D*48

$GPRMC,173025.000,A,3747.0388,N,12214.4564,W,52.30,310.37,160318,,,D*47

$GPRMC,173032.000,A,3747.0955,N,12214.5614,W,49.15,303.21,160318,,,D*46

$GPRMC,173039.000,A,3747.1493,N,12214.6609,W,47.37,303.71,160318,,,D*4F

$GPRMC,173046.000,A,3747.2004,N,12214.7598,W,49.82,302.47,160318,,,D*40

$GPRMC,173053.000,A,3747.2437,N,12214.8610,W,44.72,296.11,160318,,,D*41

$GPRMC,173100.000,A,3747.2796,N,12214.9605,W,45.45,293.87,160318,,,D*44

$GPRMC,173107.000,A,3747.3100,N,12215.0571,W,42.42,291.04,160318,,,D*4A

$GPRMC,173114.000,A,3747.3390,N,12215.1593,W,45.35,288.19,160318,,,D*4D

$GPRMC,173121.000,A,3747.3619,N,12215.2671,W,47.54,283.74,160318,,,D*46

$GPRMC,173128.000,A,3747.3813,N,12215.3842,W,50.22,281.97,160318,,,D*4C

$GPRMC,173135.000,A,3747.4008,N,12215.4969,W,44.66,284.00,160318,,,D*44

$GPRMC,173142.000,A,3747.4301,N,12215.5922,W,39.27,297.98,160318,,,D*4C

$GPRMC,173149.000,A,3747.4810,N,12215.6792,W,47.00,312.92,160318,,,D*40

$GPRMC,173156.000,A,3747.5514,N,12215.7605,W,49.44,317.02,160318,,,D*4A

$GPRMC,173203.000,A,3747.6244,N,12215.8447,W,50.16,315.81,160318,,,D*45

$GPRMC,173210.000,A,3747.6892,N,12215.9380,W,47.17,306.28,160318,,,D*4D

$GPRMC,173217.000,A,3747.7341,N,12216.0328,W,44.31,295.51,160318,,,D*44

$GPRMC,173224.000,A,3747.7798,N,12216.1461,W,50.70,296.89,160318,,,D*49

$GPRMC,173231.000,A,3747.8220,N,12216.2510,W,44.58,296.83,160318,,,D*45

$GPRMC,173238.000,A,3747.8609,N,12216.3488,W,43.55,296.31,160318,,,D*41

$GPRMC,173245.000,A,3747.8980,N,12216.4428,W,43.91,295.67,160318,,,D*40

$GPRMC,173252.000,A,3747.9366,N,12216.5428,W,46.79,295.86,160318,,,D*48

$GPRMC,173259.000,A,3747.9824,N,12216.6472,W,49.75,300.01,160318,,,D*43

$GPRMC,173306.000,A,3748.0288,N,12216.7439,W,41.09,306.57,160318,,,D*4A

$GPRMC,173313.000,A,3748.0933,N,12216.7972,W,41.27,340.68,160318,,,D*45

$GPRMC,173320.000,A,3748.1788,N,12216.7964,W,46.77,15.65,160318,,,D*71

$GPRMC,173327.000,A,3748.2657,N,12216.7485,W,46.82,26.12,160318,,,D*7E

$GPRMC,173334.000,A,3748.3428,N,12216.6912,W,44.21,32.77,160318,,,D*78

$GPRMC,173341.000,A,3748.4117,N,12216.6392,W,37.99,28.21,160318,,,D*79

$GPRMC,173348.000,A,3748.4670,N,12216.6007,W,29.08,31.08,160318,,,D*7D

$GPRMC,173355.000,A,3748.4967,N,12216.5806,W,6.56,28.69,160318,,,D*4B

$GPRMC,173402.000,A,3748.4982,N,12216.5797,W,0.33,23.40,160318,,,D*47

$GPRMC,173409.000,A,3748.5157,N,12216.5627,W,16.61,57.30,160318,,,D*73

$GPRMC,173416.000,A,3748.5043,N,12216.5235,W,19.94,117.18,160318,,,D*44

$GPRMC,173423.000,A,3748.4923,N,12216.4940,W,2.47,114.77,160318,,,D*7A

$GPRMC,173430.000,A,3748.4931,N,12216.4928,W,0.00,114.77,160318,,,D*74

$GPRMC,173437.000,A,3748.4795,N,12216.4633,W,20.65,115.77,160318,,,D*46

$GPRMC,173444.000,A,3748.4604,N,12216.4110,W,24.67,115.67,160318,,,D*4A

$GPRMC,173451.000,A,3748.4397,N,12216.3630,W,16.19,116.73,160318,,,D*4D

$GPRMC,173458.000,A,3748.4353,N,12216.3533,W,0.06,99.38,160318,,,D*4C

$GPRMC,173505.000,A,3748.4356,N,12216.3535,W,0.00,99.38,160318,,,D*40

$GPRMC,173512.000,A,3748.4287,N,12216.3288,W,16.65,103.32,160318,,,D*46

$GPRMC,173519.000,A,3748.4222,N,12216.2806,W,20.24,99.28,160318,,,D*76

$GPRMC,173526.000,A,3748.4169,N,12216.2410,W,14.14,100.74,160318,,,D*41

$GPRMC,173533.000,A,3748.4143,N,12216.2245,W,0.04,98.75,160318,,,D*4E

$GPRMC,173540.000,A,3748.4138,N,12216.2247,W,0.25,98.75,160318,,,D*47

$GPRMC,173547.000,A,3748.4149,N,12216.2156,W,5.51,52.74,160318,,,D*44

$GPRMC,173554.000,A,3748.4341,N,12216.2087,W,12.34,12.52,160318,,,D*74

$GPRMC,173601.000,A,3748.4484,N,12216.2039,W,3.00,13.94,160318,,,D*40

$GPRMC,173608.000,A,3748.4492,N,12216.2015,W,0.05,13.94,160318,,,D*46

$GPRMC,173615.000,A,3748.4491,N,12216.2008,W,0.03,13.94,160318,,,D*43

$GPRMC,173622.000,A,3748.4493,N,12216.2005,W,0.02,13.94,160318,,,D*49

$GPRMC,173629.000,A,3748.4498,N,12216.2002,W,0.00,13.94,160318,,,D*4C

$GPRMC,173636.000,A,3748.4554,N,12216.1979,W,0.48,341.23,160318,,,D*71

$GPRMC,173643.000,A,3748.4571,N,12216.1985,W,0.01,341.23,160318,,,D*7A

$GPRMC,173650.000,A,3748.4576,N,12216.1984,W,0.22,341.23,160318,,,D*7F

$GPRMC,173657.000,A,3748.4583,N,12216.1981,W,0.28,341.23,160318,,,D*7D

$GPRMC,173704.000,A,3748.4591,N,12216.1983,W,0.95,350.68,160318,,,D*72

$GPRMC,173711.000,A,3748.4633,N,12216.2008,W,0.65,302.66,160318,,,D*72

$GPRMC,173718.000,A,3748.4615,N,12216.2033,W,0.23,239.69,160318,,,D*73

$GPRMC,173725.000,A,3748.4614,N,12216.2040,W,0.48,239.69,160318,,,D*75

$GPRMC,173732.000,A,3748.4617,N,12216.2037,W,0.72,27.80,160318,,,D*43

$GPRMC,173739.000,A,3748.4566,N,12216.2026,W,8.80,178.58,160318,,,D*76

$GPRMC,173746.000,A,3748.4276,N,12216.2103,W,14.30,192.32,160318,,,D*40

$GPRMC,173753.000,A,3748.3990,N,12216.2192,W,14.11,192.96,160318,,,D*45

$GPRMC,173800.000,A,3748.3769,N,12216.2231,W,6.91,186.58,160318,,,D*72

$GPRMC,173807.000,A,3748.3749,N,12216.2251,W,0.93,198.10,160318,,,D*76

$GPRMC,173814.000,A,3748.3736,N,12216.2271,W,0.74,198.10,160318,,,D*77

$GPRMC,173821.000,A,3748.3652,N,12216.2229,W,2.63,174.55,160318,,,D*78

$GPRMC,173828.000,A,3748.3658,N,12216.2458,W,3.88,279.26,160318,,,D*75

$GPRMC,173835.000,A,3748.3674,N,12216.2450,W,0.71,44.70,160318,,,D*45

$GPRMC,173842.000,A,3748.3692,N,12216.2413,W,1.42,57.32,160318,,,D*4F

$GPRMC,173849.000,V,,,,,1.24,61.36,160318,,,N*75

$GPRMC,173856.000,V,,,,,1.53,330.83,160318,,,N*42

$GPRMC,173903.000,V,,,,,1.06,330.69,160318,,,N*47

$GPRMC,173910.000,V,,,,,0.09,330.69,160318,,,N*4B

$GPRMC,173917.000,V,,,,,-0.01,330.69,160318,,,N*69

$GPRMC,173924.000,V,,,,,0.00,330.69,160318,,,N*45

$GPRMC,173931.000,V,,,,,0.00,330.69,160318,,,N*41

$GPRMC,173938.000,V,,,,,0.00,330.69,160318,,,N*48

$GPRMC,173945.000,V,,,,,0.00,330.69,160318,,,N*42

$GPRMC,173952.000,V,,,,,0.00,330.69,160318,,,N*44

$GPRMC,173959.000,V,,,,,0.00,330.69,160318,,,N*4F

$GPRMC,174006.000,V,,,,,0.00,330.69,160318,,,N*4B

$GPRMC,174013.000,V,,,,,1.98,197.82,160318,,,N*45

$GPRMC,174020.000,A,3748.3795,N,12216.2159,W,7.14,301.63,160318,,,D*78

$GPRMC,174027.000,A,3748.3787,N,12216.2675,W,2.21,298.88,160318,,,D*72

$GPRMC,174034.000,A,3748.3782,N,12216.2721,W,0.02,298.88,160318,,,D*76

$GPRMC,174041.000,A,3748.3797,N,12216.2706,W,0.05,298.88,160318,,,D*72

$GPRMC,174048.000,A,3748.3796,N,12216.2699,W,0.15,298.88,160318,,,D*7C

$GPRMC,174055.000,A,3748.3783,N,12216.2698,W,0.12,298.88,160318,,,D*72

$GPRMC,174102.000,A,3748.3730,N,12216.2785,W,6.80,254.46,160318,,,D*7B

$GPRMC,174109.000,A,3748.3743,N,12216.3003,W,4.71,284.25,160318,,,D*78

$GPRMC,174116.000,A,3748.3936,N,12216.3141,W,6.39,342.68,160318,,,D*71

$GPRMC,174123.000,A,3748.4079,N,12216.3214,W,7.40,343.70,160318,,,D*76

$GPRMC,174130.000,A,3748.4152,N,12216.3268,W,3.14,231.72,160318,,,D*74

$GPRMC,174137.000,A,3748.4174,N,12216.3256,W,0.13,231.72,160318,,,D*7E

$GPRMC,174144.000,A,3748.4176,N,12216.3252,W,0.00,231.72,160318,,,D*7E

$GPRMC,174151.000,A,3748.4177,N,12216.3249,W,0.00,231.72,160318,,,D*71

$GPRMC,174158.000,A,3748.4405,N,12216.3318,W,15.98,345.92,160318,,,D*44

$GPRMC,174205.000,A,3748.4688,N,12216.3426,W,9.44,348.93,160318,,,D*72

$GPRMC,174212.000,A,3748.4728,N,12216.3449,W,5.38,335.28,160318,,,D*7B

$GPRMC,174219.000,A,3748.4963,N,12216.3532,W,14.70,344.54,160318,,,D*4D

$GPRMC,174226.000,A,3748.5207,N,12216.3607,W,12.66,346.09,160318,,,D*47

$GPRMC,174233.000,A,3748.5524,N,12216.3708,W,15.45,346.25,160318,,,D*43

$GPRMC,174240.000,A,3748.5622,N,12216.3607,W,8.77,101.29,160318,,,D*7C

$GPRMC,174247.000,A,3748.5589,N,12216.3340,W,13.32,98.99,160318,,,D*7E

$GPRMC,174254.000,A,3748.5548,N,12216.3156,W,2.85,107.62,160318,,,D*7B

$GPRMC,174301.000,A,3748.5544,N,12216.3158,W,0.03,107.62,160318,,,D*74

$GPRMC,174308.000,A,3748.5513,N,12216.3210,W,2.01,278.31,160318,,,D*7D

$GPRMC,174315.000,A,3748.5516,N,12216.3196,W,0.47,146.38,160318,,,D*7E

$GPRMC,174322.000,A,3748.5511,N,12216.3165,W,3.90,111.57,160318,,,D*73

$GPRMC,174329.000,A,3748.5519,N,12216.3129,W,0.42,144.62,160318,,,D*72

$GPRMC,174336.000,A,3748.5532,N,12216.3105,W,0.97,106.94,160318,,,D*7C

$GPRMC,174343.000,A,3748.5526,N,12216.3114,W,0.24,128.94,160318,,,D*7F

$GPRMC,174350.000,A,3748.5521,N,12216.3114,W,0.88,115.30,160318,,,D*7C

$GPRMC,174357.000,A,3748.5526,N,12216.3119,W,0.39,109.73,160318,,,D*71

$GPRMC,174404.000,A,3748.5538,N,12216.3126,W,0.44,109.73,160318,,,D*79

$GPRMC,174411.000,A,3748.5541,N,12216.3119,W,0.37,109.73,160318,,,D*7B

$GPRMC,174418.000,A,3748.5542,N,12216.3120,W,0.28,109.73,160318,,,D*75

$GPRMC,174425.000,A,3748.5551,N,12216.3130,W,0.11,193.85,160318,,,D*78

$GPRMC,174432.000,A,3748.5563,N,12216.3145,W,0.35,201.47,160318,,,D*7D

$GPRMC,174439.000,A,3748.5566,N,12216.3137,W,1.65,92.67,160318,,,D*48

$GPRMC,174446.000,A,3748.5572,N,12216.3124,W,0.33,82.34,160318,,,D*42

$GPRMC,174453.000,A,3748.5571,N,12216.3119,W,0.01,48.14,160318,,,D*4E

$GPRMC,174500.000,A,3748.5569,N,12216.3122,W,0.19,48.14,160318,,,D*41

$GPRMC,174507.000,A,3748.5573,N,12216.3121,W,0.07,144.80,160318,,,D*71

$GPRMC,174514.000,A,3748.5574,N,12216.3120,W,0.41,144.80,160318,,,D*77

$GPRMC,174521.000,A,3748.5576,N,12216.3116,W,0.92,352.35,160318,,,D*73

$GPRMC,174528.000,A,3748.5570,N,12216.3107,W,1.37,61.41,160318,,,D*42

$GPRMC,174535.000,A,3748.5565,N,12216.3099,W,0.12,181.86,160318,,,D*7E

$GPRMC,174542.000,A,3748.5564,N,12216.3097,W,0.09,181.86,160318,,,D*7B

$GPRMC,174549.000,A,3748.5564,N,12216.3096,W,0.09,181.86,160318,,,D*71

$GPRMC,174556.000,A,3748.5564,N,12216.3095,W,0.03,181.86,160318,,,D*76

$GPRMC,174603.000,A,3748.5564,N,12216.3096,W,0.04,181.86,160318,,,D*71

$GPRMC,174610.000,A,3748.5564,N,12216.3096,W,0.01,181.86,160318,,,D*76

$GPRMC,174617.000,A,3748.5564,N,12216.3096,W,0.07,181.86,160318,,,D*77

$GPRMC,174624.000,A,3748.5564,N,12216.3096,W,0.03,181.86,160318,,,D*73

$GPRMC,174631.000,A,3748.5563,N,12216.3096,W,0.03,181.86,160318,,,D*70

$GPRMC,174638.000,A,3748.5564,N,12216.3096,W,0.09,181.86,160318,,,D*74

$GPRMC,174645.000,A,3748.5556,N,12216.3068,W,1.14,81.34,160318,,,D*4B

$GPRMC,174652.000,A,3748.5536,N,12216.3035,W,1.00,100.87,160318,,,D*76

$GPRMC,174659.000,A,3748.5532,N,12216.2975,W,1.95,83.68,160318,,,D*42

$GPRMC,174706.000,A,3748.5518,N,12216.2903,W,1.78,112.87,160318,,,D*7B

$GPRMC,174713.000,A,3748.5471,N,12216.2858,W,3.37,139.27,160318,,,D*74

$GPRMC,174720.000,A,3748.5461,N,12216.2817,W,2.62,107.84,160318,,,D*7B

$GPRMC,174727.000,A,3748.5436,N,12216.2793,W,2.34,113.83,160318,,,D*7C

$GPRMC,174734.000,A,3748.5414,N,12216.2758,W,1.85,156.71,160318,,,D*7C

$GPRMC,174741.000,A,3748.5388,N,12216.2729,W,2.05,121.89,160318,,,D*76

$GPRMC,174748.000,A,3748.5361,N,12216.2719,W,1.58,144.64,160318,,,D*70

$GPRMC,174755.000,A,3748.5330,N,12216.2709,W,1.65,125.29,160318,,,D*79

$GPRMC,174802.000,A,3748.5300,N,12216.2715,W,1.03,190.91,160318,,,D*77

$GPRMC,174809.000,A,3748.5278,N,12216.2723,W,0.77,188.23,160318,,,D*75

$GPRMC,174816.000,A,3748.5278,N,12216.2724,W,0.02,188.23,160318,,,D*7E

$GPRMC,174823.000,A,3748.5279,N,12216.2724,W,0.10,188.23,160318,,,D*7A

$GPRMC,174830.000,A,3748.5281,N,12216.2727,W,0.87,268.12,160318,,,D*7D

$GPRMC,174837.000,A,3748.5283,N,12216.2728,W,0.04,262.46,160318,,,D*77

$GPRMC,174844.000,A,3748.5283,N,12216.2728,W,0.14,262.46,160318,,,D*72

$GPRMC,174851.000,A,3748.5281,N,12216.2720,W,0.46,106.60,160318,,,D*7E

$GPRMC,174858.000,A,3748.5274,N,12216.2714,W,0.16,134.03,160318,,,D*7B

$GPRMC,174905.000,A,3748.5275,N,12216.2714,W,0.06,134.03,160318,,,D*72

$GPRMC,174912.000,A,3748.5271,N,12216.2715,W,0.09,193.94,160318,,,D*7D

$GPRMC,174919.000,A,3748.5272,N,12216.2717,W,0.10,193.94,160318,,,D*7F

$GPRMC,174926.000,A,3748.5272,N,12216.2717,W,0.02,193.94,160318,,,D*70

$GPRMC,174933.000,A,3748.5272,N,12216.2717,W,0.09,193.94,160318,,,D*7F

$GPRMC,174940.000,A,3748.5272,N,12216.2717,W,0.18,193.94,160318,,,D*7B

$GPRMC,174947.000,A,3748.5272,N,12216.2717,W,0.01,193.94,160318,,,D*74

$GPRMC,174954.000,A,3748.5272,N,12216.2717,W,0.02,193.94,160318,,,D*75

$GPRMC,175001.000,A,3748.5272,N,12216.2717,W,0.01,193.94,160318,,,D*7E

$GPRMC,175008.000,A,3748.5272,N,12216.2717,W,0.03,193.94,160318,,,D*75

$GPRMC,175015.000,A,3748.5272,N,12216.2717,W,0.02,193.94,160318,,,D*78

$GPRMC,175022.000,A,3748.5272,N,12216.2717,W,0.32,193.94,160318,,,D*7F

$GPRMC,175029.000,A,3748.5261,N,12216.2716,W,0.43,198.83,160318,,,D*7C

$GPRMC,175036.000,A,3748.5260,N,12216.2717,W,0.03,207.41,160318,,,D*7D

$GPRMC,175043.000,A,3748.5255,N,12216.2740,W,1.32,276.26,160318,,,D*7F

$GPRMC,175050.000,A,3748.5254,N,12216.2776,W,1.38,280.98,160318,,,D*7F

$GPRMC,175057.000,A,3748.5257,N,12216.2802,W,1.18,290.14,160318,,,D*70

$GPRMC,175104.000,A,3748.5255,N,12216.2810,W,0.16,121.52,160318,,,D*72

$GPRMC,175111.000,A,3748.5253,N,12216.2810,W,0.09,121.52,160318,,,D*7E

$GPRMC,175118.000,A,3748.5254,N,12216.2809,W,0.07,121.52,160318,,,D*76

$GPRMC,175125.000,A,3748.5254,N,12216.2809,W,0.01,121.52,160318,,,D*7E

$GPRMC,175132.000,A,3748.5253,N,12216.2809,W,0.07,121.52,160318,,,D*79

$GPRMC,175139.000,A,3748.5255,N,12216.2805,W,1.09,48.42,160318,,,D*48

$GPRMC,175146.000,A,3748.5261,N,12216.2793,W,0.12,33.96,160318,,,D*49

$GPRMC,175153.000,A,3748.5259,N,12216.2792,W,0.42,33.96,160318,,,D*42

$GPRMC,175200.000,A,3748.5261,N,12216.2794,W,0.37,33.96,160318,,,D*48

$GPRMC,175207.000,A,3748.5266,N,12216.2794,W,0.11,350.47,160318,,,D*76

$GPRMC,175214.000,A,3748.5268,N,12216.2794,W,0.42,7.31,160318,,,D*7C

$GPRMC,175221.000,A,3748.5268,N,12216.2793,W,0.08,10.90,160318,,,D*4E

$GPRMC,175228.000,A,3748.5243,N,12216.2770,W,2.37,145.04,160318,,,D*71

$GPRMC,175235.000,A,3748.5197,N,12216.2746,W,2.22,175.62,160318,,,D*75

$GPRMC,175242.000,A,3748.5168,N,12216.2720,W,2.79,123.84,160318,,,D*70

$GPRMC,175249.000,A,3748.5156,N,12216.2656,W,2.57,94.31,160318,,,D*49

$GPRMC,175256.000,A,3748.5152,N,12216.2596,W,3.84,78.71,160318,,,D*45

$GPRMC,175303.000,A,3748.5141,N,12216.2532,W,3.23,94.82,160318,,,D*4B

$GPRMC,175310.000,A,3748.5131,N,12216.2474,W,1.91,114.00,160318,,,D*75

$GPRMC,175317.000,A,3748.5121,N,12216.2423,W,2.63,101.97,160318,,,D*75

$GPRMC,175324.000,A,3748.5110,N,12216.2367,W,2.59,113.96,160318,,,D*7B

$GPRMC,175331.000,A,3748.5098,N,12216.2303,W,2.73,103.23,160318,,,D*7B

$GPRMC,175338.000,A,3748.5097,N,12216.2238,W,2.55,99.42,160318,,,D*45

$GPRMC,175345.000,A,3748.5088,N,12216.2178,W,2.25,98.84,160318,,,D*4A

$GPRMC,175352.000,A,3748.5080,N,12216.2119,W,2.87,103.77,160318,,,D*74

$GPRMC,175359.000,A,3748.5052,N,12216.2062,W,2.49,148.26,160318,,,D*74

$GPRMC,175406.000,A,3748.4999,N,12216.2046,W,2.44,148.93,160318,,,D*73

$GPRMC,175413.000,A,3748.4979,N,12216.2030,W,0.18,145.62,160318,,,D*70

$GPRMC,175420.000,A,3748.4979,N,12216.2033,W,0.05,145.62,160318,,,D*7F

$GPRMC,175427.000,A,3748.4984,N,12216.2026,W,1.02,107.15,160318,,,D*7E

$GPRMC,175434.000,A,3748.4965,N,12216.2017,W,0.87,160.23,160318,,,D*79

$GPRMC,175441.000,A,3748.4933,N,12216.2018,W,2.34,180.67,160318,,,D*73

$GPRMC,175448.000,A,3748.4886,N,12216.2047,W,2.50,168.70,160318,,,D*7D

$GPRMC,175455.000,A,3748.4836,N,12216.2063,W,2.72,175.09,160318,,,D*7E

$GPRMC,175502.000,A,3748.4780,N,12216.2089,W,3.27,233.08,160318,,,D*7A

$GPRMC,175509.000,A,3748.4727,N,12216.2109,W,2.75,192.65,160318,,,D*70

$GPRMC,175516.000,A,3748.4678,N,12216.2114,W,2.94,190.22,160318,,,D*77

$GPRMC,175523.000,A,3748.4631,N,12216.2126,W,1.93,197.26,160318,,,D*7A

$GPRMC,175530.000,A,3748.4562,N,12216.2136,W,2.77,193.69,160318,,,D*7A

$GPRMC,175537.000,A,3748.4504,N,12216.2144,W,2.47,196.94,160318,,,D*7C

$GPRMC,175544.000,A,3748.4489,N,12216.2150,W,0.67,342.77,160318,,,D*7F

$GPRMC,175551.000,A,3748.4484,N,12216.2140,W,0.73,111.65,160318,,,D*75

$GPRMC,175558.000,A,3748.4486,N,12216.2134,W,0.40,124.94,160318,,,D*75

$GPRMC,175605.000,A,3748.4465,N,12216.2137,W,2.40,189.16,160318,,,D*7F

$GPRMC,175612.000,A,3748.4433,N,12216.2144,W,1.72,207.37,160318,,,D*7A

$GPRMC,175619.000,A,3748.4402,N,12216.2166,W,0.45,200.34,160318,,,D*72

$GPRMC,175626.000,A,3748.4399,N,12216.2164,W,0.27,98.18,160318,,,D*40

$GPRMC,175633.000,A,3748.4398,N,12216.2161,W,0.12,98.35,160318,,,D*49

$GPRMC,175640.000,A,3748.4397,N,12216.2158,W,0.11,123.39,160318,,,D*76

$GPRMC,175647.000,A,3748.4396,N,12216.2158,W,0.33,123.39,160318,,,D*70

$GPRMC,175654.000,A,3748.4395,N,12216.2154,W,0.03,108.35,160318,,,D*7B

$GPRMC,175701.000,A,3748.4395,N,12216.2154,W,0.05,108.35,160318,,,D*7C

$GPRMC,175708.000,A,3748.4395,N,12216.2154,W,0.01,108.35,160318,,,D*71

$GPRMC,175715.000,A,3748.4395,N,12216.2154,W,0.04,108.35,160318,,,D*78

$GPRMC,175722.000,A,3748.4395,N,12216.2154,W,0.00,108.35,160318,,,D*78

$GPRMC,175729.000,A,3748.4395,N,12216.2154,W,0.00,108.35,160318,,,D*73

$GPRMC,175736.000,A,3748.4395,N,12216.2154,W,0.00,108.35,160318,,,D*7D

$GPRMC,175743.000,A,3748.4395,N,12216.2154,W,0.02,108.35,160318,,,D*7D

$GPRMC,175750.000,A,3748.4395,N,12216.2154,W,0.00,108.35,160318,,,D*7D

$GPRMC,175757.000,A,3748.4395,N,12216.2154,W,0.01,108.35,160318,,,D*7B

$GPRMC,175804.000,A,3748.4395,N,12216.2154,W,0.02,108.35,160318,,,D*71

$GPRMC,175811.000,A,3748.4395,N,12216.2155,W,0.01,108.35,160318,,,D*77

$GPRMC,175818.000,A,3748.4395,N,12216.2155,W,0.02,108.35,160318,,,D*7D

$GPRMC,175825.000,A,3748.4392,N,12216.2156,W,1.17,21.42,160318,,,D*48

$GPRMC,175832.000,A,3748.4337,N,12216.2206,W,1.42,22.48,160318,,,D*4E

$GPRMC,175839.000,A,3748.4357,N,12216.2203,W,0.46,19.58,160318,,,D*4A

$GPRMC,175846.000,A,3748.4363,N,12216.2202,W,0.21,17.85,160318,,,D*4B

$GPRMC,175853.000,A,3748.4365,N,12216.2199,W,0.21,33.09,160318,,,D*4A

$GPRMC,175900.000,A,3748.4366,N,12216.2199,W,0.18,33.09,160318,,,D*44

$GPRMC,175907.000,A,3748.4370,N,12216.2200,W,0.53,33.09,160318,,,D*48

$GPRMC,175914.000,A,3748.4387,N,12216.2222,W,0.74,311.28,160318,,,D*77

$GPRMC,175921.000,A,3748.4406,N,12216.2224,W,0.12,310.82,160318,,,D*78

$GPRMC,175928.000,A,3748.4405,N,12216.2227,W,0.09,310.82,160318,,,D*7B

$GPRMC,175935.000,A,3748.4405,N,12216.2229,W,0.04,310.82,160318,,,D*74

$GPRMC,175942.000,A,3748.4402,N,12216.2233,W,0.24,310.82,160318,,,D*7A

$GPRMC,175949.000,A,3748.4400,N,12216.2235,W,0.36,310.82,160318,,,D*76

$GPRMC,175956.000,A,3748.4403,N,12216.2234,W,0.03,310.82,160318,,,D*7C

$GPRMC,180003.000,A,3748.4406,N,12216.2231,W,0.09,53.80,160318,,,D*43

$GPRMC,180010.000,A,3748.4405,N,12216.2236,W,0.22,268.30,160318,,,D*7D

$GPRMC,180017.000,A,3748.4405,N,12216.2235,W,0.90,88.00,160318,,,D*4F

$GPRMC,180024.000,A,3748.4385,N,12216.2213,W,0.78,142.64,160318,,,D*77

$GPRMC,180031.000,A,3748.4371,N,12216.2216,W,0.60,175.66,160318,,,D*72

$GPRMC,180038.000,A,3748.4369,N,12216.2221,W,0.49,175.66,160318,,,D*7D

$GPRMC,180045.000,A,3748.4370,N,12216.2229,W,0.40,175.66,160318,,,D*7E

$GPRMC,180052.000,A,3748.4380,N,12216.2241,W,0.49,264.87,160318,,,D*7C

$GPRMC,180059.000,A,3748.4393,N,12216.2238,W,0.45,318.57,160318,,,D*70

$GPRMC,180106.000,A,3748.4396,N,12216.2248,W,0.27,318.57,160318,,,D*7D

$GPRMC,180113.000,A,3748.4397,N,12216.2253,W,0.08,318.57,160318,,,D*7F

$GPRMC,180120.000,A,3748.4399,N,12216.2253,W,0.13,318.57,160318,,,D*7B

$GPRMC,180127.000,A,3748.4399,N,12216.2255,W,0.18,318.57,160318,,,D*71

$GPRMC,180134.000,A,3748.4394,N,12216.2260,W,0.19,318.57,160318,,,D*79

$GPRMC,180141.000,A,3748.4392,N,12216.2259,W,0.16,318.57,160318,,,D*78

$GPRMC,180148.000,A,3748.4390,N,12216.2255,W,0.20,318.57,160318,,,D*7A

$GPRMC,180155.000,A,3748.4390,N,12216.2252,W,0.01,318.57,160318,,,D*72

$GPRMC,180202.000,A,3748.4383,N,12216.2262,W,0.59,239.41,160318,,,D*7A

$GPRMC,180209.000,A,3748.4380,N,12216.2280,W,0.36,253.13,160318,,,D*7C

$GPRMC,180216.000,A,3748.4375,N,12216.2292,W,0.60,230.53,160318,,,D*79

$GPRMC,180223.000,A,3748.4380,N,12216.2295,W,0.13,230.53,160318,,,D*76

$GPRMC,180230.000,A,3748.4379,N,12216.2303,W,0.50,230.53,160318,,,D*7B

$GPRMC,180237.000,A,3748.4387,N,12216.2308,W,0.42,253.67,160318,,,D*77

$GPRMC,180244.000,A,3748.4388,N,12216.2312,W,0.22,253.67,160318,,,D*71

$GPRMC,180251.000,A,3748.4386,N,12216.2319,W,0.47,253.67,160318,,,D*73

$GPRMC,180258.000,A,3748.4374,N,12216.2324,W,0.49,216.84,160318,,,D*7B

$GPRMC,180305.000,A,3748.4375,N,12216.2311,W,0.61,243.79,160318,,,D*7D

$GPRMC,180312.000,A,3748.4371,N,12216.2307,W,0.44,243.79,160318,,,D*7F

$GPRMC,180319.000,A,3748.4370,N,12216.2315,W,0.22,243.79,160318,,,D*76

$GPRMC,180326.000,A,3748.4375,N,12216.2310,W,0.42,243.79,160318,,,D*7C

$GPRMC,180333.000,A,3748.4380,N,12216.2303,W,0.40,243.79,160318,,,D*72

$GPRMC,180340.000,A,3748.4383,N,12216.2294,W,0.43,243.79,160318,,,D*79

$GPRMC,180347.000,A,3748.4387,N,12216.2289,W,0.25,243.79,160318,,,D*76

$GPRMC,180354.000,A,3748.4389,N,12216.2286,W,0.13,243.79,160318,,,D*70

$GPRMC,180401.000,A,3748.4391,N,12216.2284,W,0.12,243.79,160318,,,D*7D

$GPRMC,180408.000,A,3748.4391,N,12216.2280,W,0.13,243.79,160318,,,D*71

$GPRMC,180415.000,A,3748.4389,N,12216.2276,W,0.26,243.79,160318,,,D*7B

$GPRMC,180422.000,A,3748.4388,N,12216.2274,W,0.22,243.79,160318,,,D*78

$GPRMC,180429.000,A,3748.4388,N,12216.2276,W,0.19,243.79,160318,,,D*79

$GPRMC,180436.000,A,3748.4392,N,12216.2277,W,0.30,243.79,160318,,,D*76

$GPRMC,180443.000,A,3748.4393,N,12216.2280,W,0.10,243.79,160318,,,D*7F

$GPRMC,180450.000,A,3748.4388,N,12216.2281,W,0.50,243.79,160318,,,D*72

$GPRMC,180457.000,A,3748.4376,N,12216.2271,W,0.37,173.81,160318,,,D*7D

$GPRMC,180504.000,A,3748.4374,N,12216.2271,W,0.20,173.81,160318,,,D*7E

$GPRMC,180511.000,A,3748.4376,N,12216.2268,W,0.34,173.81,160318,,,D*75

$GPRMC,180518.000,A,3748.4371,N,12216.2264,W,0.30,173.81,160318,,,D*73

$GPRMC,180525.000,A,3748.4366,N,12216.2265,W,0.05,173.81,160318,,,D*7C

$GPRMC,180532.000,A,3748.4368,N,12216.2265,W,0.07,173.81,160318,,,D*76

$GPRMC,180539.000,A,3748.4368,N,12216.2266,W,0.07,173.81,160318,,,D*7E

$GPRMC,180546.000,A,3748.4367,N,12216.2265,W,0.05,173.81,160318,,,D*78

$GPRMC,180553.000,A,3748.4369,N,12216.2259,W,0.17,173.81,160318,,,D*7E

$GPRMC,180600.000,A,3748.4367,N,12216.2259,W,0.10,173.81,160318,,,D*72

$GPRMC,180607.000,A,3748.4365,N,12216.2257,W,0.09,173.81,160318,,,D*71

$GPRMC,180614.000,A,3748.4365,N,12216.2255,W,0.28,173.81,160318,,,D*72

$GPRMC,180621.000,A,3748.4370,N,12216.2254,W,0.13,173.81,160318,,,D*79

$GPRMC,180628.000,A,3748.4368,N,12216.2256,W,0.09,173.81,160318,,,D*70

$GPRMC,180635.000,A,3748.4368,N,12216.2254,W,0.24,173.81,160318,,,D*71

$GPRMC,180642.000,A,3748.4369,N,12216.2250,W,0.20,173.81,160318,,,D*70

$GPRMC,180649.000,A,3748.4368,N,12216.2247,W,0.09,173.81,160318,,,D*77

$GPRMC,180656.000,A,3748.4368,N,12216.2246,W,0.23,173.81,160318,,,D*70

$GPRMC,180703.000,A,3748.4368,N,12216.2242,W,0.22,173.81,160318,,,D*74

$GPRMC,180710.000,A,3748.4365,N,12216.2245,W,0.05,173.81,160318,,,D*79

$GPRMC,180717.000,A,3748.4366,N,12216.2240,W,0.06,173.81,160318,,,D*7B

$GPRMC,180724.000,A,3748.4367,N,12216.2236,W,0.12,173.81,160318,,,D*7E

$GPRMC,180731.000,A,3748.4365,N,12216.2238,W,0.11,173.81,160318,,,D*75

$GPRMC,180738.000,A,3748.4367,N,12216.2235,W,0.27,173.81,160318,,,D*76

$GPRMC,180745.000,A,3748.4368,N,12216.2233,W,0.22,173.81,160318,,,D*70

$GPRMC,180752.000,A,3748.4367,N,12216.2231,W,0.19,173.81,160318,,,D*73

$GPRMC,180759.000,A,3748.4373,N,12216.2234,W,0.48,173.81,160318,,,D*7C

$GPRMC,180806.000,A,3748.4377,N,12216.2237,W,0.26,173.81,160318,,,D*76

$GPRMC,180813.000,A,3748.4382,N,12216.2242,W,0.20,173.81,160318,,,D*7C

$GPRMC,180820.000,A,3748.4383,N,12216.2244,W,0.09,173.81,160318,,,D*70

$GPRMC,180827.000,A,3748.4381,N,12216.2244,W,0.03,173.81,160318,,,D*7F

$GPRMC,180834.000,A,3748.4378,N,12216.2245,W,0.25,173.81,160318,,,D*7E

$GPRMC,180841.000,A,3748.4374,N,12216.2246,W,0.32,173.81,160318,,,D*75

$GPRMC,180848.000,A,3748.4370,N,12216.2243,W,0.18,173.81,160318,,,D*75

$GPRMC,180855.000,A,3748.4371,N,12216.2242,W,0.22,173.81,160318,,,D*70

$GPRMC,180902.000,A,3748.4372,N,12216.2240,W,0.03,173.81,160318,,,D*71

$GPRMC,180909.000,A,3748.4372,N,12216.2241,W,0.18,173.81,160318,,,D*71

$GPRMC,180916.000,A,3748.4370,N,12216.2243,W,0.07,173.81,160318,,,D*71

$GPRMC,180923.000,A,3748.4373,N,12216.2241,W,0.24,173.81,160318,,,D*77

$GPRMC,180930.000,A,3748.4377,N,12216.2239,W,0.30,173.81,160318,,,D*7B

$GPRMC,180937.000,A,3748.4380,N,12216.2234,W,0.28,173.81,160318,,,D*70

$GPRMC,180944.000,A,3748.4378,N,12216.2229,W,0.30,173.81,160318,,,D*76

$GPRMC,180951.000,A,3748.4381,N,12216.2220,W,0.24,173.81,160318,,,D*78

$GPRMC,180958.000,A,3748.4385,N,12216.2217,W,0.07,173.81,160318,,,D*70

$GPRMC,181005.000,A,3748.4383,N,12216.2216,W,0.15,173.81,160318,,,D*74

$GPRMC,181012.000,A,3748.4381,N,12216.2215,W,0.24,173.81,160318,,,D*71

$GPRMC,181019.000,A,3748.4377,N,12216.2210,W,0.19,173.81,160318,,,D*78

$GPRMC,181026.000,A,3748.4373,N,12216.2207,W,0.29,173.81,160318,,,D*75

$GPRMC,181033.000,A,3748.4371,N,12216.2210,W,0.03,173.81,160318,,,D*7D

$GPRMC,181040.000,A,3748.4373,N,12216.2210,W,0.30,173.81,160318,,,D*7B

$GPRMC,181047.000,A,3748.4375,N,12216.2210,W,0.17,173.81,160318,,,D*7F

$GPRMC,181054.000,A,3748.4372,N,12216.2213,W,0.30,173.81,160318,,,D*7C

$GPRMC,181101.000,A,3748.4369,N,12216.2220,W,0.21,173.81,160318,,,D*77

$GPRMC,181108.000,A,3748.4370,N,12216.2222,W,0.09,173.81,160318,,,D*7E

$GPRMC,181115.000,A,3748.4371,N,12216.2221,W,0.12,173.81,160318,,,D*7A

$GPRMC,181122.000,A,3748.4369,N,12216.2222,W,0.11,173.81,160318,,,D*77

$GPRMC,181129.000,A,3748.4369,N,12216.2223,W,0.35,173.81,160318,,,D*7B

$GPRMC,181136.000,A,3748.4369,N,12216.2231,W,0.08,173.81,160318,,,D*78

$GPRMC,181143.000,A,3748.4369,N,12216.2233,W,0.13,173.81,160318,,,D*72

$GPRMC,181150.000,A,3748.4370,N,12216.2232,W,0.16,173.81,160318,,,D*7C

$GPRMC,181157.000,A,3748.4371,N,12216.2232,W,0.17,173.81,160318,,,D*7B

